customer_cif,customer_name,customer_type,customer_entity_type,date_of_birth,father_spouse_name,nationality,citizenship,residency,tax_residency,pan,aadhaar,aadhaar_masked,identification_doc_no,mobile_number,email_id,address_individual,state,city,address_lat,address_lon,occupation_industry,annual_income,professional_experience_years,source_of_funds,customer_risk_score,pep_flag,hni_flag,minor_flag,non_face_to_face_flag,vkyc_flag,cif_creation_date,kyc_update_date,date_of_incorporation,place_of_incorporation,beneficial_owner_types,passive_nfe,address_registered_office,address_place_of_business,address_beneficial_owners,entity_identification_doc_no,cif_beneficial_owners,name_beneficial_owners
568416233429,Shri Imports,Non-Individual,Trust,,,Indian,,Resident,India,RJNCB7186F,,,,8630354836,shri512@outlook.com,,Gujarat,Rajkot,25.429995,82.500857,Agriculture,9715791,,Government Grant,High,N,N,N,N,N,26-07-2016,06-11-2023,14-08-2004,"Rajkot, Gujarat",Control through other means,N,"33 Corporate Park, Rajkot, Gujarat - 330994","Plot 491, Industrial Area, Rajkot, Gujarat","898, Residential Colony, Rajkot, Gujarat",U67037NJ1991PTC853122,673073680431,Vikram Tiwari
555950558237,Nisha Kumar,Individual,Individual,23-07-2005,Rajesh Bose,Indian,Indian,Resident,India,LVKPS9152M,465174117894,XXXX-XXXX-6042,AADHAAR-8754XXXX6928,8852963083,nisha.kumar395@gmail.com,"91, MG Road, Jabalpur, Madhya Pradesh - 721707",Madhya Pradesh,Jabalpur,23.648042,79.207618,Consultant,119832,5,Salary,Low,N,N,N,Y,N,31-12-2022,08-11-2024,,,,,,,,,,
904543732757,Sandeep Yadav,Individual,Individual,02-12-1964,Rohan Bose,Indian,Indian,Resident,India,VFEPV7897V,291542070427,XXXX-XXXX-2620,AADHAAR-7121XXXX1828,9746011962,sandeep.yadav311@yahoo.co.in,"386, NH Highway, Kochi, Kerala - 164997",Kerala,Kochi,9.91336,76.226703,Freelancer,1376806,2,Business Income,Medium,N,N,N,N,N,03-03-2018,27-11-2023,,,,,,,,,,
846653492019,Silver Holdings,Non-Individual,Partnership,,,Indian,,Resident,India,NBPAS8305S,,,,6926980811,silver543@hotmail.com,,Maharashtra,Nashik,24.986665,76.69371,Pharmaceuticals,291322439,,Trading Profits,Medium,N,N,N,Y,N,28-07-2019,29-01-2021,14-05-2012,"Nashik, Maharashtra",Control through other means,N,"198 Corporate Park, Nashik, Maharashtra - 574636","Plot 306, Industrial Area, Nashik, Maharashtra","534, Residential Colony, Nashik, Maharashtra",U34976SC2021PTC654194,892248101873,Ravi Gupta
177074419669,Ritu Mehta,Individual,Individual,15-06-1994,Kiran Deshmukh,Indian,Indian,Resident,India,XSFPI2831I,420558464588,XXXX-XXXX-1390,AADHAAR-5472XXXX1687,7873958302,ritu.mehta443@outlook.com,"431, Ring Road, Dwarka, Delhi - 265729",Delhi,Dwarka,17.125566,78.635664,Doctor,1421154,35,Business Income,Medium,N,N,N,Y,N,01-11-2023,04-03-2025,,,,,,,,,,
426378350328,Aditi Verma,Individual,Individual,17-01-1979,Sanjay Rao,Indian,Indian,Resident,India,XVAPT9339F,416942482861,XXXX-XXXX-3093,AADHAAR-9706XXXX2800,8680734497,aditi.verma573@yahoo.co.in,"117, MG Road, Indore, Madhya Pradesh - 334518",Madhya Pradesh,Indore,19.052761,73.077737,Lawyer,2317886,35,Business Income,Medium,N,N,N,Y,N,18-09-2020,02-09-2023,,,,,,,,,,
367228463517,Sapna Chauhan,Individual,Individual,09-09-1976,Pradeep Tiwari,Indian,Indian,Resident,India,KGUPL8239H,750638775099,XXXX-XXXX-7518,AADHAAR-5776XXXX3922,6747992456,sapna.chauhan339@yahoo.co.in,"292, Nehru Place, Cuttack, Odisha - 632629",Odisha,Cuttack,19.868097,81.094933,Freelancer,1364706,9,Agriculture Income,High,N,N,N,N,N,25-10-2020,27-01-2024,,,,,,,,,,
361306244194,Arjun Yadav,Individual,Individual,13-04-1975,Rajesh Tiwari,Indian,Indian,Resident,India,OBRPY4090R,606841090561,XXXX-XXXX-6780,AADHAAR-7290XXXX8014,9730120230,arjun.yadav878@gmail.com,"312, Station Road, Cuttack, Odisha - 912583",Odisha,Cuttack,21.351578,80.752882,Doctor,417758,32,Agriculture Income,Low,N,N,N,Y,N,15-03-2019,20-04-2022,,,,,,,,,,
446045683931,Priya Patel,Individual,Individual,02-02-2000,Vikram Nair,Indian,Indian,Resident,India,LEZPU4117A,451036369342,XXXX-XXXX-4213,AADHAAR-5706XXXX5888,8338358564,priya.patel853@yahoo.co.in,"85, Nehru Place, Ahmedabad, Gujarat - 829973",Gujarat,Ahmedabad,23.009444,72.530877,Freelancer,476092,18,Salary,Low,N,N,N,N,Y,25-01-2016,05-11-2018,,,,,,,,,,
658424222760,Aditya Sen,Individual,Individual,22-04-2002,Anil Verma,Indian,Indian,Resident,India,RBUPU1060D,514253142584,XXXX-XXXX-7406,AADHAAR-7923XXXX3300,6895798851,aditya.sen496@rediffmail.com,"158, Gandhi Nagar, Jabalpur, Madhya Pradesh - 389830",Madhya Pradesh,Jabalpur,16.732408,76.045823,Self-Employed - Retail,128454,5,Rental Income,Low,N,N,N,Y,Y,24-02-2020,05-07-2022,,,,,,,,,,
575786301287,Nikhil Chatterjee,Individual,Individual,12-11-1990,Manoj Shah,Indian,Indian,Resident,India,SQTPF2753M,771403589339,XXXX-XXXX-0466,AADHAAR-8284XXXX8427,8391988250,nikhil.chatterjee231@rediffmail.com,"423, MG Road, Bhopal, Madhya Pradesh - 357848",Madhya Pradesh,Bhopal,23.273052,77.395896,Retired,458094,9,Pension,Low,N,N,N,N,Y,14-12-2018,27-09-2021,,,,,,,,,,
847981837919,Aditya Verma,Individual,Individual,08-03-1995,Ankit Mehta,Indian,Indian,Resident,India,NMCPZ7708K,501718090492,XXXX-XXXX-7364,AADHAAR-6568XXXX8531,9591230029,aditya.verma20@yahoo.co.in,"76, Park Street, Patna, Bihar - 929994",Bihar,Patna,25.59689,85.107897,Doctor,856596,26,Investment Returns,Medium,N,N,N,N,N,14-11-2022,02-11-2023,,,,,,,,,,
902727309176,Harsh Kumar,Individual,Individual,28-08-1966,Varun Patel,Indian,Indian,Resident,India,QCLPU5673H,502599453226,XXXX-XXXX-7831,AADHAAR-7289XXXX9968,6500051471,harsh.kumar507@outlook.com,"51, NH Highway, Gurugram, Haryana - 505189",Haryana,Gurugram,20.441576,78.77631,Business Owner,1176402,26,Agriculture Income,Medium,N,N,N,N,Y,25-03-2015,19-12-2016,,,,,,,,,,
471615047165,Premier Industries,Non-Individual,Partnership,,,Indian,,Resident,India,HISTL7642Y,,,,9357142456,premier26@hotmail.com,,Delhi,New Delhi,28.658075,77.244021,Import/Export,219614559,,Government Grant,Low,N,N,N,N,N,16-06-2022,11-05-2024,04-04-2021,"New Delhi, Delhi",Shareholding > 25%,N,"75 Corporate Park, New Delhi, Delhi - 852916","Plot 431, Industrial Area, New Delhi, Delhi","746, Residential Colony, New Delhi, Delhi",U40360NZ2015PTC217242,582118433504,Anjali Kumar
835900512795,Ritu Bose,Individual,Individual,29-12-1963,Deepak Sen,Indian,Indian,Resident,India,ARIPO0651C,243548254127,XXXX-XXXX-5025,AADHAAR-6595XXXX1053,7000178253,ritu.bose102@outlook.com,"491, Gandhi Nagar, Mangaluru, Karnataka - 219035",Karnataka,Mangaluru,23.328229,76.011998,Student,323741,2,Business Income,Low,N,N,N,N,N,15-07-2020,09-07-2023,,,,,,,,,,
671385793005,Mohit Das,Individual,Individual,26-12-1979,Rohan Kumar,Indian,Indian,Resident,India,VFSPG3716E,912223277013,XXXX-XXXX-7144,AADHAAR-4474XXXX2935,7124336901,mohit.das397@outlook.com,"191, NH Highway, Thiruvananthapuram, Kerala - 499684",Kerala,Thiruvananthapuram,24.85794,81.189584,Consultant,1226324,1,Pension,Medium,N,N,N,N,Y,27-03-2024,12-02-2025,,,,,,,,,,
764356859224,Vivek Agarwal,Individual,Individual,12-07-1982,Sachin Yadav,Indian,Indian,Resident,India,XDIPD6221H,688700286411,XXXX-XXXX-3754,AADHAAR-3663XXXX0406,9419585051,vivek.agarwal450@rediffmail.com,"66, Gandhi Nagar, Jabalpur, Madhya Pradesh - 503644",Madhya Pradesh,Jabalpur,16.646135,81.111974,Doctor,240125,15,Pension,Low,N,N,N,N,N,01-10-2023,24-09-2024,,,,,,,,,,
688437321284,Manoj Yadav,Individual,Individual,03-03-1970,Akash Malhotra,Indian,Indian,Resident,India,ONZPZ2192E,584439211753,XXXX-XXXX-8174,AADHAAR-2723XXXX9889,9464939415,manoj.yadav937@rediffmail.com,"207, Nehru Place, Varanasi, Uttar Pradesh - 512071",Uttar Pradesh,Varanasi,20.290317,80.454905,Consultant,10111310,33,Business Income,Low,N,Y,N,N,N,09-11-2015,04-05-2017,,,,,,,,,,
574436636454,Sneha Verma,Individual,Individual,01-03-2009,Varun Bose,Indian,Indian,Resident,India,QBMPM3365Q,523063214062,XXXX-XXXX-3160,AADHAAR-2970XXXX8254,8927046528,sneha.verma306@outlook.com,"355, Gandhi Nagar, Bhagalpur, Bihar - 945773",Bihar,Bhagalpur,22.083511,74.860046,Agriculture,1150204,0,Salary,Medium,N,N,Y,Y,N,25-09-2018,13-07-2021,,,,,,,,,,
852481401157,United Enterprises,Non-Individual,Sole Proprietorship,,,Indian,,Resident,India,KHCBB3695F,,,,9613030049,united347@yahoo.co.in,,Uttar Pradesh,Lucknow,26.848706,80.987959,Trading,116744421,,Business Revenue,Low,N,N,N,N,N,09-01-2001,27-11-2012,11-05-1998,"Lucknow, Uttar Pradesh",Shareholding > 25%,N,"142 Corporate Park, Lucknow, Uttar Pradesh - 749877","Plot 408, Industrial Area, Lucknow, Uttar Pradesh","750, Residential Colony, Lucknow, Uttar Pradesh",U69898KK2022PTC588574,662919856098,Harsh Pandey
681006531228,Shruti Sen,Individual,Individual,17-05-1968,Anil Chauhan,Indian,Indian,Resident,India,RTLPG6118I,859599646685,XXXX-XXXX-1289,AADHAAR-7467XXXX1537,6436250254,shruti.sen862@gmail.com,"98, MG Road, Patna, Bihar - 238464",Bihar,Patna,25.586383,85.142169,Business Owner,2480039,38,Salary,Medium,N,N,N,N,N,25-10-2018,24-01-2023,,,,,,,,,,
303833485388,Varun Singh,Individual,Individual,10-10-2001,Harsh Mishra,Indian,Indian,Resident,India,WKCPD5102A,397957348930,XXXX-XXXX-2692,AADHAAR-9899XXXX1527,8074320351,varun.singh758@hotmail.com,"236, Ring Road, Puri, Odisha - 614581",Odisha,Puri,15.644913,79.320017,Lawyer,574868,20,Business Income,Medium,N,N,N,N,N,13-01-2020,01-08-2023,,,,,,,,,,
707496451671,Manoj Sharma,Individual,Individual,28-11-1990,Varun Deshmukh,Indian,Indian,Resident,India,KCCPW2892H,913334502236,XXXX-XXXX-0316,AADHAAR-2233XXXX8423,9761369261,manoj.sharma415@yahoo.co.in,"258, Park Street, Puri, Odisha - 201663",Odisha,Puri,18.641036,79.914227,Salaried - Banking,290642,29,Agriculture Income,Low,N,N,N,Y,N,07-10-2017,13-02-2019,,,,,,,,,,
168102011068,Manoj Pandey,Individual,Individual,18-07-1967,Ashish Sharma,Indian,Indian,Resident,India,DEVPL2586Z,909048672386,XXXX-XXXX-2137,AADHAAR-4896XXXX1960,8600830200,manoj.pandey725@gmail.com,"151, Gandhi Nagar, Hubli, Karnataka - 454820",Karnataka,Hubli,24.55184,80.830158,Agriculture,316144,9,Investment Returns,Low,N,N,N,N,N,26-06-2018,06-10-2022,,,,,,,,,,
966297091554,Nikhil Chatterjee,Individual,Individual,12-08-2005,Ankit Deshmukh,Indian,Indian,Resident,India,YZEPA0553D,508175618498,XXXX-XXXX-4816,AADHAAR-5854XXXX5487,8934613764,nikhil.chatterjee949@hotmail.com,"85, Gandhi Nagar, Durgapur, West Bengal - 875515",West Bengal,Durgapur,16.74662,78.357678,Business Owner,882685,5,Rental Income,Medium,N,N,N,N,N,16-03-2015,16-03-2021,,,,,,,,,,
132120828655,Ravi Reddy,Individual,Individual,21-08-1968,Aditya Iyer,Indian,Indian,Resident,India,YQSPQ6172I,209962855709,XXXX-XXXX-2542,AADHAAR-7912XXXX5922,6913010060,ravi.reddy369@hotmail.com,"483, Gandhi Nagar, Jodhpur, Rajasthan - 229005",Rajasthan,Jodhpur,24.407632,77.533533,Consultant,258084,14,Family Support,Low,N,N,N,N,N,16-09-2015,18-02-2018,,,,,,,,,,
138351753697,Sonal Banerjee,Individual,Individual,23-10-1961,Ankit Pandey,Indian,Indian,Resident,India,LQXPB4711V,968649535143,XXXX-XXXX-0053,AADHAAR-8499XXXX2956,9050665334,sonal.banerjee233@gmail.com,"362, Nehru Place, Indore, Madhya Pradesh - 391609",Madhya Pradesh,Indore,23.217462,75.47874,Self-Employed - Retail,491023,29,Rental Income,Low,N,N,N,Y,N,16-04-2018,08-07-2019,,,,,,,,,,
198434218021,Meera Malhotra,Individual,Individual,21-11-1961,Pranav Banerjee,Indian,Indian,Resident,India,CSOPI9017Y,708592023519,XXXX-XXXX-5123,AADHAAR-6466XXXX7387,8826382832,meera.malhotra639@gmail.com,"465, Park Street, Nizamabad, Telangana - 551606",Telangana,Nizamabad,18.425902,73.629715,Retired,399441,16,Pension,Low,N,N,N,N,N,26-02-2022,11-06-2024,,,,,,,,,,
491718912167,Nisha Singh,Individual,Individual,20-10-1981,Naveen Pandey,Indian,Indian,Resident,India,KTYPG0278D,807537982686,XXXX-XXXX-1548,AADHAAR-7457XXXX5135,7856645816,nisha.singh627@gmail.com,"426, Nehru Place, Jalandhar, Punjab - 256363",Punjab,Jalandhar,23.610746,74.835228,Self-Employed - Retail,377851,22,Family Support,Low,N,N,N,N,N,05-10-2020,23-10-2024,,,,,,,,,,
192274164565,Lata Agarwal,Individual,Individual,23-06-1978,Rahul Bose,Indian,Indian,Resident,India,YGJPA9084M,707471761037,XXXX-XXXX-1014,AADHAAR-3096XXXX4583,7817240165,lata.agarwal10@gmail.com,"297, Park Street, Pune, Maharashtra - 168892",Maharashtra,Pune,18.479224,73.817515,Self-Employed - Professional,478628,3,Family Support,Low,N,N,N,N,Y,07-10-2023,17-03-2024,,,,,,,,,,
824702463434,Rashmi Tiwari,Individual,Individual,08-05-1976,Suresh Malhotra,Indian,Indian,Resident,India,HBFPB3338P,606280627444,XXXX-XXXX-9316,AADHAAR-7958XXXX6467,6063869167,rashmi.tiwari36@yahoo.co.in,"35, Station Road, Bhopal, Madhya Pradesh - 916332",Madhya Pradesh,Bhopal,23.243252,77.367434,Doctor,1824847,23,Investment Returns,Medium,N,N,N,N,N,06-02-2024,15-04-2024,,,,,,,,,,
621874060561,Sandeep Reddy,Individual,Individual,31-10-1970,Pranav Chauhan,Indian,Indian,Resident,India,BPPPU6666E,343153581264,XXXX-XXXX-7016,AADHAAR-3253XXXX3820,6067895676,sandeep.reddy966@gmail.com,"268, Park Street, Bhagalpur, Bihar - 328186",Bihar,Bhagalpur,18.369495,81.944341,Freelancer,37200035,27,Pension,Low,N,Y,N,Y,N,19-08-2023,09-10-2024,,,,,,,,,,
841261579370,Golden Services,Non-Individual,LLP,,,Indian,,Resident,India,SNTCF8918R,,,,9620963464,golden546@hotmail.com,,Kerala,Kozhikode,18.217061,79.313511,Agriculture,433523696,,Investment,Medium,N,N,N,N,N,13-07-2021,15-06-2022,08-06-2021,"Kozhikode, Kerala",Shareholding > 25%,N,"28 Corporate Park, Kozhikode, Kerala - 118277","Plot 464, Industrial Area, Kozhikode, Kerala","970, Residential Colony, Kozhikode, Kerala",U68765KP1997PTC333739,580631372904,Ritu Agarwal
834826866655,Mamta Mukherjee,Individual,Individual,11-05-1972,Rohan Kumar,Indian,Indian,Resident,India,IPLPZ7987L,691563804505,XXXX-XXXX-1840,AADHAAR-2906XXXX0469,7124090959,mamta.mukherjee791@outlook.com,"4, Park Street, Ludhiana, Punjab - 169112",Punjab,Ludhiana,20.351265,76.808429,Salaried - IT,1344760,22,Family Support,Medium,N,N,N,N,N,20-11-2019,18-05-2021,,,,,,,,,,
409019791198,Pranav Banerjee,Individual,Individual,16-11-1997,Mohit Bhat,Indian,Indian,Resident,India,QVTPB3865U,947992282809,XXXX-XXXX-6357,AADHAAR-8631XXXX5012,8531287765,pranav.banerjee118@rediffmail.com,"50, NH Highway, Jalandhar, Punjab - 863286",Punjab,Jalandhar,19.11925,75.697584,Freelancer,446192,16,Business Income,Low,N,N,N,N,N,02-03-2021,26-03-2022,,,,,,,,,,
274796674115,Yash Iyer,Individual,Individual,12-07-1963,Varun Patel,Indian,Indian,Resident,India,TNYPD0404C,922844431687,XXXX-XXXX-8341,AADHAAR-8115XXXX1355,7473467453,yash.iyer96@hotmail.com,"274, Park Street, Puri, Odisha - 810400",Odisha,Puri,18.564782,81.583207,Agriculture,486403,21,Salary,Low,N,N,N,N,N,12-12-2023,18-12-2024,,,,,,,,,,
253767991787,Varun Sharma,Individual,Individual,02-04-1963,Vivek Rao,Indian,Indian,Resident,India,UBSPY0331V,477271799353,XXXX-XXXX-4044,AADHAAR-9384XXXX0341,7072878226,varun.sharma647@yahoo.co.in,"143, Ring Road, Siliguri, West Bengal - 580626",West Bengal,Siliguri,22.458888,73.304601,Lawyer,291085,28,Family Support,Low,N,N,N,Y,N,09-07-2019,13-02-2020,,,,,,,,,,
508086939133,Pradeep Mukherjee,Individual,Individual,22-04-1975,Gaurav Pandey,Indian,Indian,Resident,India,CMUPW3991E,731581814961,XXXX-XXXX-6581,AADHAAR-7138XXXX2434,8758781813,pradeep.mukherjee349@hotmail.com,"8, Ring Road, Agra, Uttar Pradesh - 348838",Uttar Pradesh,Agra,21.483941,73.790118,Doctor,612024,36,Rental Income,Medium,N,N,N,N,N,05-09-2018,06-10-2018,,,,,,,,,,
286261442339,Asha Verma,Individual,Individual,27-11-1995,Rajesh Das,Indian,Indian,Resident,India,VIUPK8053S,740519372256,XXXX-XXXX-2944,AADHAAR-9811XXXX3158,9629639592,asha.verma923@yahoo.co.in,"131, Nehru Place, Faridabad, Haryana - 713567",Haryana,Faridabad,24.108769,73.102323,Retired,2147982,9,Salary,High,N,N,N,Y,N,29-05-2016,20-01-2017,,,,,,,,,,
159836551300,Diamond Ventures,Non-Individual,Private Limited,,,Indian,,Resident,India,UCSLN4281C,,,,7356283311,diamond448@gmail.com,,Maharashtra,Nashik,24.386925,81.240106,Agriculture,259789704,,Investment,Low,N,N,N,N,N,10-01-2024,05-10-2024,22-06-2016,"Nashik, Maharashtra",Control through other means,Y,"61 Corporate Park, Nashik, Maharashtra - 264769","Plot 477, Industrial Area, Nashik, Maharashtra","920, Residential Colony, Nashik, Maharashtra",U70245VJ1993PTC620016,724076442007,Sonal Joshi
321248864992,Harsh Singh,Individual,Individual,11-07-1977,Amit Chatterjee,Indian,Indian,Resident,India,IXAPO1973O,857241724182,XXXX-XXXX-8526,AADHAAR-6653XXXX5878,8555392935,harsh.singh388@hotmail.com,"31, Station Road, Jaipur, Rajasthan - 545436",Rajasthan,Jaipur,26.891041,75.768419,Salaried - Government,209916,26,Investment Returns,Low,N,N,N,N,N,19-02-2015,16-02-2024,,,,,,,,,,
370597387328,Manoj Bhat,Individual,Individual,18-12-1981,Vikram Malhotra,Indian,Indian,Resident,India,SEUPO5381D,925577710893,XXXX-XXXX-0412,AADHAAR-7632XXXX2810,6695106544,manoj.bhat392@hotmail.com,"94, Park Street, Chandigarh, Punjab - 396977",Punjab,Chandigarh,30.692768,76.814234,Salaried - IT,3135287,31,Investment Returns,High,N,N,N,N,Y,19-02-2021,31-10-2024,,,,,,,,,,
897873401421,Arjun Mehta,Individual,Individual,03-09-1987,Rajesh Kapoor,Indian,Indian,Resident,India,ZXSPI0727O,804624628179,XXXX-XXXX-4604,AADHAAR-2797XXXX8608,7709195297,arjun.mehta931@rediffmail.com,"411, Ring Road, Nashik, Maharashtra - 899061",Maharashtra,Nashik,16.11264,76.874493,Salaried - IT,1212445,11,Salary,High,N,N,N,N,N,28-05-2022,13-11-2023,,,,,,,,,,
239839107337,Priya Sen,Individual,Individual,21-09-1974,Suresh Singh,Indian,Indian,Resident,India,BNFPY8346X,885438199116,XXXX-XXXX-6232,AADHAAR-6064XXXX6680,9932666111,priya.sen853@hotmail.com,"276, Park Street, Chennai, Tamil Nadu - 818361",Tamil Nadu,Chennai,13.127177,80.265409,Salaried - Government,237951,4,Rental Income,Low,N,N,N,N,Y,28-02-2022,17-07-2024,,,,,,,,,,
837144522878,Anil Verma,Individual,Individual,19-02-2006,Sandeep Malhotra,Indian,Indian,Resident,India,BGUPP5565T,678313706506,XXXX-XXXX-1956,AADHAAR-4974XXXX3517,9512391375,anil.verma267@gmail.com,"156, Nehru Place, Surat, Gujarat - 182814",Gujarat,Surat,18.017005,79.233425,Freelancer,276110,11,Rental Income,Low,N,N,N,Y,Y,16-03-2024,02-02-2025,,,,,,,,,,
355239923397,Mohit Chatterjee,Individual,Individual,01-04-1970,Akash Nair,Indian,Indian,Resident,India,CLXPZ5188P,294655761537,XXXX-XXXX-4285,AADHAAR-2190XXXX8228,7151972671,mohit.chatterjee405@hotmail.com,"40, Park Street, Thrissur, Kerala - 524905",Kerala,Thrissur,19.319642,81.609858,Consultant,1078188,16,Family Support,Medium,N,N,N,N,N,15-12-2022,03-07-2023,,,,,,,,,,
179533709341,Shri Imports,Non-Individual,LLP,,,Indian,,Resident,India,TQTLN7078D,,,,6146565092,shri230@hotmail.com,,Uttar Pradesh,Lucknow,26.803933,80.920172,Pharmaceuticals,339639729,,Business Revenue,Low,N,N,N,N,N,24-07-2019,05-12-2020,27-11-2010,"Lucknow, Uttar Pradesh",Senior Managing Official,N,"191 Corporate Park, Lucknow, Uttar Pradesh - 725753","Plot 12, Industrial Area, Lucknow, Uttar Pradesh","555, Residential Colony, Lucknow, Uttar Pradesh",U70162FS1993PTC714291,857446948612,Nikhil Deshmukh
312210348440,Nisha Banerjee,Individual,Individual,06-01-1977,Harsh Shah,Indian,Indian,Resident,India,ASJPW1877Z,670742743952,XXXX-XXXX-7228,AADHAAR-8375XXXX5715,8156056716,nisha.banerjee990@hotmail.com,"422, Station Road, Jodhpur, Rajasthan - 149288",Rajasthan,Jodhpur,22.51923,74.622756,Student,445872,32,Agriculture Income,Low,N,N,N,Y,Y,01-04-2016,17-06-2024,,,,,,,,,,
891462598535,Shri Associates,Non-Individual,Sole Proprietorship,,,Indian,,Resident,India,CRJBK7364J,,,,6541341092,shri273@yahoo.co.in,,Tamil Nadu,Coimbatore,24.364881,77.481576,Manufacturing,295168436,,Investment,High,N,N,N,N,N,24-07-2010,21-01-2021,15-04-2004,"Coimbatore, Tamil Nadu",Shareholding > 25%,N,"167 Corporate Park, Coimbatore, Tamil Nadu - 801412","Plot 378, Industrial Area, Coimbatore, Tamil Nadu","568, Residential Colony, Coimbatore, Tamil Nadu",U87777IG1990PTC744271,524574142579,Anjali Mishra
660953208900,Arjun Chauhan,Individual,Individual,28-03-1960,Rahul Shah,Indian,Indian,Resident,India,VQTPQ3635P,605256463807,XXXX-XXXX-8535,AADHAAR-4789XXXX2253,8960592589,arjun.chauhan283@outlook.com,"23, Gandhi Nagar, Bhubaneswar, Odisha - 440023",Odisha,Bhubaneswar,20.293124,85.77758,Doctor,226736,39,Investment Returns,Low,N,N,N,Y,N,19-01-2015,05-02-2021,,,,,,,,,,
737744543685,Anita Gupta,Individual,Individual,25-11-1990,Akash Deshmukh,Indian,Indian,Resident,India,CBRPO4887Q,221307036896,XXXX-XXXX-5161,AADHAAR-2055XXXX7054,7239460735,anita.gupta900@gmail.com,"52, Gandhi Nagar, Nizamabad, Telangana - 338138",Telangana,Nizamabad,24.489951,74.828777,Student,6036767,3,Salary,High,Y,N,N,N,N,04-02-2022,05-04-2022,,,,,,,,,,
382736497560,Nisha Agarwal,Individual,Individual,26-03-1999,Aditya Kapoor,Indian,Indian,Resident,India,AEPPD7314E,910631830706,XXXX-XXXX-4322,AADHAAR-8952XXXX6290,8436317390,nisha.agarwal78@rediffmail.com,"112, Station Road, Coimbatore, Tamil Nadu - 433827",Tamil Nadu,Coimbatore,21.874212,82.418461,Freelancer,374190,1,Rental Income,Low,N,N,N,Y,N,07-05-2024,14-05-2024,,,,,,,,,,
908431075603,National Logistics,Non-Individual,Public Limited,,,Indian,,Resident,India,LFRTH7465P,,,,7419352741,national363@hotmail.com,,Karnataka,Mangaluru,20.863238,78.909276,Real Estate,218674724,,Investment,Medium,N,N,N,N,N,05-12-2008,14-11-2017,29-03-2005,"Mangaluru, Karnataka",Control through other means,N,"50 Corporate Park, Mangaluru, Karnataka - 471143","Plot 246, Industrial Area, Mangaluru, Karnataka","964, Residential Colony, Mangaluru, Karnataka",U58413JL1990PTC222640,116846229578,Mohit Malhotra
668058852816,Asha Reddy,Individual,Individual,13-02-1988,Suresh Sen,Indian,Indian,Resident,India,WGRPK8806N,334670257249,XXXX-XXXX-2254,AADHAAR-3224XXXX7349,6030433836,asha.reddy879@yahoo.co.in,"55, Station Road, New Delhi, Delhi - 367922",Delhi,New Delhi,28.659569,77.220711,Salaried - Banking,319137,17,Rental Income,Low,N,N,N,N,N,03-06-2019,13-02-2021,,,,,,,,,,
321487220668,Harsh Sharma,Individual,Individual,28-08-1996,Kiran Patel,Indian,Indian,Resident,India,JZUPT1872Y,912449909003,XXXX-XXXX-9280,AADHAAR-2004XXXX0529,6043885566,harsh.sharma433@rediffmail.com,"267, MG Road, Vadodara, Gujarat - 540934",Gujarat,Vadodara,16.733654,77.818865,Salaried - Banking,2100153,2,Investment Returns,High,N,N,N,N,N,19-03-2016,11-10-2016,,,,,,,,,,
667964593219,Pooja Singh,Individual,Individual,20-02-2004,Rahul Singh,Indian,Indian,Resident,India,ECGPW4000G,747436007123,XXXX-XXXX-5182,AADHAAR-8817XXXX5261,6821631217,pooja.singh10@gmail.com,"298, Nehru Place, Karnal, Haryana - 824305",Haryana,Karnal,18.377649,80.420559,Student,426502,38,Business Income,Low,N,N,N,N,Y,08-02-2017,13-09-2020,,,,,,,,,,
489996971429,Vivek Tiwari,Individual,Individual,20-03-1986,Suresh Pandey,Indian,Indian,Resident,India,BZWPQ1938Z,259092249374,XXXX-XXXX-4289,AADHAAR-4276XXXX3667,6330055786,vivek.tiwari866@outlook.com,"135, Gandhi Nagar, Hyderabad, Telangana - 626183",Telangana,Hyderabad,17.355848,78.453335,Student,546120,24,Salary,High,N,N,N,N,N,08-06-2016,07-09-2018,,,,,,,,,,
267930190065,Sandeep Sharma,Individual,Individual,12-11-1983,Anil Tiwari,Indian,Indian,Resident,India,TKFPZ4989Q,794775034743,XXXX-XXXX-0915,AADHAAR-6487XXXX7413,6537855253,sandeep.sharma349@yahoo.co.in,"12, MG Road, Gwalior, Madhya Pradesh - 935294",Madhya Pradesh,Gwalior,18.880935,74.371635,Retired,144687,37,Investment Returns,Low,N,N,N,Y,N,06-03-2019,30-10-2023,,,,,,,,,,
695267999599,Excel Holdings,Non-Individual,LLP,,,Indian,,Resident,India,AEAHX1386M,,,,9648071633,excel171@hotmail.com,,Punjab,Amritsar,16.100176,78.722844,Import/Export,448285042,,Government Grant,Low,N,N,N,N,N,30-05-2020,24-07-2020,06-07-2011,"Amritsar, Punjab",Shareholding > 25%,N,"103 Corporate Park, Amritsar, Punjab - 492792","Plot 419, Industrial Area, Amritsar, Punjab","897, Residential Colony, Amritsar, Punjab",U12093HA2002PTC457166,500809608284,Rohan Malhotra
225192054146,Sanjay Bhat,Individual,Individual,20-11-1969,Pranav Nair,Indian,Indian,Resident,India,CIDPD1855Z,765867363426,XXXX-XXXX-4520,AADHAAR-9907XXXX3666,6646339538,sanjay.bhat411@hotmail.com,"286, Nehru Place, Jabalpur, Madhya Pradesh - 142783",Madhya Pradesh,Jabalpur,17.341169,75.682393,Doctor,229815,13,Investment Returns,Low,N,N,N,N,N,21-05-2022,29-11-2023,,,,,,,,,,
950377326530,Rekha Bose,Individual,Individual,30-06-1989,Deepak Deshmukh,Indian,Indian,Resident,India,UXWPT0497D,450103606027,XXXX-XXXX-9524,AADHAAR-9008XXXX4076,6244678265,rekha.bose507@outlook.com,"84, Gandhi Nagar, Madurai, Tamil Nadu - 783427",Tamil Nadu,Madurai,17.501341,75.6893,Self-Employed - Retail,1739252,39,Family Support,High,N,N,N,N,N,04-11-2021,25-06-2023,,,,,,,,,,
144097838548,Akash Kapoor,Individual,Individual,07-07-1991,Nikhil Sen,Indian,Indian,Resident,India,RAHPI6456G,385826392947,XXXX-XXXX-3689,AADHAAR-6856XXXX3290,7656329812,akash.kapoor871@rediffmail.com,"181, NH Highway, Lucknow, Uttar Pradesh - 103373",Uttar Pradesh,Lucknow,26.873135,80.965073,Self-Employed - Retail,371342,1,Rental Income,Low,N,N,N,N,N,09-03-2020,19-05-2021,,,,,,,,,,
901167445797,Sapna Mehta,Individual,Individual,12-10-1985,Sanjay Kumar,Indian,Indian,Resident,India,RLWPN9930Q,835993465910,XXXX-XXXX-7859,AADHAAR-9397XXXX5933,8552586237,sapna.mehta523@gmail.com,"92, MG Road, Noida, Uttar Pradesh - 932779",Uttar Pradesh,Noida,25.044768,75.99881,Salaried - Banking,248171,7,Investment Returns,Low,N,N,N,N,N,10-10-2022,09-10-2023,,,,,,,,,,
864331152235,Diamond Capital,Non-Individual,Private Limited,,,Indian,,Resident,India,EQEHP5802P,,,,7822185131,diamond556@yahoo.co.in,,Haryana,Faridabad,18.176342,77.269652,Real Estate,312554542,,Trading Profits,High,N,N,N,N,N,12-10-2020,24-03-2021,03-08-2009,"Faridabad, Haryana",Control through other means,N,"80 Corporate Park, Faridabad, Haryana - 706396","Plot 403, Industrial Area, Faridabad, Haryana","917, Residential Colony, Faridabad, Haryana",U70902JM2006PTC912239,637007918076,Pranav Agarwal
343148190307,Jyoti Sharma,Individual,Individual,27-10-1985,Manoj Das,Indian,Indian,Resident,India,ZHGPG0560H,656472797372,XXXX-XXXX-1462,AADHAAR-3637XXXX9620,7329233687,jyoti.sharma937@outlook.com,"113, Park Street, Salem, Tamil Nadu - 743483",Tamil Nadu,Salem,23.066941,75.322532,Self-Employed - Professional,120514,22,Rental Income,Low,N,N,N,Y,N,19-08-2021,10-07-2023,,,,,,,,,,
951966960713,Sandeep Malhotra,Individual,Individual,08-12-1982,Anil Tiwari,Indian,Indian,Resident,Other,GNWPT1279S,872378698911,XXXX-XXXX-3614,AADHAAR-5752XXXX3271,8159797905,sandeep.malhotra82@hotmail.com,"351, MG Road, Howrah, West Bengal - 483390",West Bengal,Howrah,20.957858,75.242677,Agriculture,600705,33,Rental Income,Medium,N,N,N,N,N,22-09-2019,22-09-2019,,,,,,,,,,
818727010527,Sunita Sen,Individual,Individual,27-01-1973,Aditya Chatterjee,Indian,Indian,Resident,India,FFFPO7674A,885622142836,XXXX-XXXX-4564,AADHAAR-6718XXXX2328,6788821827,sunita.sen110@gmail.com,"466, Nehru Place, Udaipur, Rajasthan - 870663",Rajasthan,Udaipur,19.737175,72.983151,Salaried - IT,159786,30,Salary,Low,N,N,N,Y,N,17-04-2023,20-01-2024,,,,,,,,,,
592987894203,Pradeep Chauhan,Individual,Individual,07-09-1998,Suresh Nair,Indian,Indian,Resident,India,OYNPN8785F,318891426221,XXXX-XXXX-7081,AADHAAR-7835XXXX5234,6377292257,pradeep.chauhan943@gmail.com,"364, Ring Road, Karimnagar, Telangana - 610898",Telangana,Karimnagar,19.222698,81.140113,Business Owner,1354265,25,Rental Income,Medium,N,N,N,N,N,20-08-2020,06-12-2021,,,,,,,,,,
439421439982,Geeta Mehta,Individual,Individual,29-10-1982,Pradeep Pandey,Indian,Indian,Resident,Other,GDOPC4485G,511028364583,XXXX-XXXX-3157,AADHAAR-8627XXXX0448,8568677765,geeta.mehta873@yahoo.co.in,"198, Park Street, Bengaluru, Karnataka - 290452",Karnataka,Bengaluru,12.94609,77.552543,Consultant,427006,36,Business Income,Low,N,N,N,N,N,11-04-2015,30-06-2017,,,,,,,,,,
720221227753,Nisha Mehta,Individual,Individual,15-05-2004,Tushar Gupta,Indian,Indian,Resident,India,BBZPZ2466B,535080224243,XXXX-XXXX-0995,AADHAAR-3644XXXX8378,7258039704,nisha.mehta167@gmail.com,"340, Park Street, Warangal, Telangana - 107852",Telangana,Warangal,19.547917,80.452148,Agriculture,1302983,33,Agriculture Income,Medium,N,N,N,Y,Y,29-03-2024,11-02-2025,,,,,,,,,,
280614211864,Pranav Malhotra,Individual,Individual,06-04-2000,Akash Pandey,Indian,Indian,NRI,India,NJVPT9832D,663777513615,XXXX-XXXX-6800,AADHAAR-3637XXXX9862,9604976672,pranav.malhotra800@gmail.com,"142, Nehru Place, Varanasi, Uttar Pradesh - 165417",Uttar Pradesh,Varanasi,20.307145,77.804908,Freelancer,251410,24,Investment Returns,Low,N,N,N,N,N,14-04-2019,28-10-2022,,,,,,,,,,
710801888319,Sneha Iyer,Individual,Individual,12-12-2006,Ravi Chatterjee,Indian,Indian,Resident,India,DPPPQ8342B,849306547758,XXXX-XXXX-8656,AADHAAR-8462XXXX5331,9676015538,sneha.iyer598@hotmail.com,"4, Nehru Place, Cuttack, Odisha - 831000",Odisha,Cuttack,19.650239,78.192921,Retired,205077,36,Pension,Low,N,N,N,Y,N,27-08-2019,20-09-2024,,,,,,,,,,
273793467232,Premier Ventures,Non-Individual,Private Limited,,,Indian,,Resident,India,AEMFL7268N,,,,7882277799,premier320@hotmail.com,,Delhi,Saket,15.624547,81.694346,Construction,496296615,,Business Revenue,Low,N,N,N,N,N,15-05-2013,03-09-2016,05-10-2004,"Saket, Delhi",Shareholding > 25%,N,"107 Corporate Park, Saket, Delhi - 528247","Plot 31, Industrial Area, Saket, Delhi","554, Residential Colony, Saket, Delhi",U18794XH2009PTC838761,573537920331,Sachin Nair
105503263053,Manoj Chatterjee,Individual,Individual,20-07-2001,Sanjay Pandey,Indian,Indian,Resident,India,OJEPY6133S,471809057477,XXXX-XXXX-5346,AADHAAR-7875XXXX3401,7975080010,manoj.chatterjee267@outlook.com,"144, Gandhi Nagar, Thiruvananthapuram, Kerala - 340519",Kerala,Thiruvananthapuram,23.663124,74.660528,Self-Employed - Retail,366512,32,Salary,Low,N,N,N,N,N,16-08-2017,19-08-2024,,,,,,,,,,
281754158955,National Exports,Non-Individual,Partnership,,,Indian,,Resident,India,WUJFG0600T,,,,6468836435,national892@outlook.com,,Madhya Pradesh,Jabalpur,17.776521,78.947321,Pharmaceuticals,317499344,,Trading Profits,Low,N,N,N,Y,N,27-05-2019,16-06-2019,16-05-2006,"Jabalpur, Madhya Pradesh",Shareholding > 25%,N,"164 Corporate Park, Jabalpur, Madhya Pradesh - 984805","Plot 209, Industrial Area, Jabalpur, Madhya Pradesh","950, Residential Colony, Jabalpur, Madhya Pradesh",U48526JA2014PTC454734,148208871835,Ritu Pillai
224468874397,Pooja Kapoor,Individual,Individual,16-02-1961,Vivek Gupta,Indian,Indian,Resident,India,NKTPX2302Y,773424344139,XXXX-XXXX-5342,AADHAAR-6549XXXX2391,9955297496,pooja.kapoor36@gmail.com,"106, Nehru Place, Cuttack, Odisha - 618074",Odisha,Cuttack,19.664215,81.338448,Self-Employed - Professional,155128,35,Family Support,Low,N,N,N,N,N,27-09-2022,21-01-2024,,,,,,,,,,
922531404645,Shri Logistics,Non-Individual,Society,,,Indian,,Resident,India,KUHJQ3769F,,,,7633823981,shri539@rediffmail.com,,Telangana,Karimnagar,19.253005,80.399498,Education,100979544,,Trading Profits,Medium,N,N,N,N,N,08-08-2005,10-04-2024,02-10-1994,"Karimnagar, Telangana",Shareholding > 25%,N,"82 Corporate Park, Karimnagar, Telangana - 452369","Plot 66, Industrial Area, Karimnagar, Telangana","120, Residential Colony, Karimnagar, Telangana",U49947VM2000PTC796097,173919296608,Rahul Bhat
705023778042,Anil Sharma,Individual,Individual,08-10-1976,Arjun Deshmukh,Indian,Indian,Resident,India,LMFPI2882K,965579111282,XXXX-XXXX-4155,AADHAAR-5106XXXX2707,9737998942,anil.sharma118@outlook.com,"461, Nehru Place, Madurai, Tamil Nadu - 882573",Tamil Nadu,Madurai,16.603352,74.447349,Salaried - Banking,101642,28,Agriculture Income,Low,N,N,N,Y,N,28-04-2024,14-06-2024,,,,,,,,,,
617532965866,Ashish Rao,Individual,Individual,11-02-1996,Vivek Malhotra,Indian,Indian,Resident,India,VWGPJ8781V,343959163982,XXXX-XXXX-6622,AADHAAR-2133XXXX9603,9725351389,ashish.rao249@outlook.com,"170, Station Road, Bhopal, Madhya Pradesh - 726420",Madhya Pradesh,Bhopal,23.28285,77.436296,Agriculture,207899,14,Business Income,Low,N,N,N,N,N,04-12-2019,29-03-2022,,,,,,,,,,
791009995408,Ravi Kapoor,Individual,Individual,15-04-1967,Sanjay Mukherjee,Indian,Indian,Resident,India,VHFPI4433U,970668581369,XXXX-XXXX-4821,AADHAAR-5671XXXX3497,6791586713,ravi.kapoor244@outlook.com,"242, Park Street, Faridabad, Haryana - 135034",Haryana,Faridabad,24.197249,74.087401,Salaried - Government,4932036,8,Salary,High,N,N,N,N,N,22-08-2023,17-12-2023,,,,,,,,,,
428708483704,Star Group,Non-Individual,Partnership,,,Indian,,Resident,India,LOUHV7385J,,,,9859362555,star3@hotmail.com,,Bihar,Bhagalpur,17.126949,80.152467,Trading,358763166,,Investment,Low,N,N,N,N,N,20-07-2003,27-07-2007,20-04-2002,"Bhagalpur, Bihar",Control through other means,N,"150 Corporate Park, Bhagalpur, Bihar - 284261","Plot 257, Industrial Area, Bhagalpur, Bihar","95, Residential Colony, Bhagalpur, Bihar",U36618RX2018PTC763890,555303207737,Sachin Reddy
618015449457,Rahul Bhat,Individual,Individual,15-11-1984,Gaurav Kapoor,Indian,Indian,Resident,India,OEJPR3141S,562848763944,XXXX-XXXX-8983,AADHAAR-2175XXXX1597,8862491922,rahul.bhat16@outlook.com,"334, Park Street, Amritsar, Punjab - 539739",Punjab,Amritsar,25.489157,73.09374,Lawyer,97855436,34,Pension,Medium,N,Y,N,N,N,11-01-2016,20-03-2023,,,,,,,,,,
646373113511,Priya Singh,Individual,Individual,07-02-1983,Sachin Sen,Indian,Indian,Resident,India,ZCWPM3345V,669814107633,XXXX-XXXX-6549,AADHAAR-4731XXXX5369,6684528858,priya.singh203@outlook.com,"191, MG Road, Kota, Rajasthan - 736755",Rajasthan,Kota,23.909281,81.860551,Consultant,2086997,20,Rental Income,Medium,N,N,N,Y,N,16-03-2015,04-10-2019,,,,,,,,,,
190837032767,Global Infra,Non-Individual,Trust,,,Indian,,Resident,India,EVKFM6678O,,,,9966420675,global309@rediffmail.com,,Punjab,Amritsar,17.103572,74.587916,Textiles,236124274,,Government Grant,Medium,N,N,N,Y,N,21-12-2000,20-01-2014,27-01-1990,"Amritsar, Punjab",Shareholding > 25%,N,"6 Corporate Park, Amritsar, Punjab - 119076","Plot 179, Industrial Area, Amritsar, Punjab","518, Residential Colony, Amritsar, Punjab",U18419ON2020PTC775559,159317016250,Akash Bose
461826105818,Aditi Sen,Individual,Individual,29-10-1982,Ankit Patel,Indian,Indian,Resident,India,VEXPT5284W,287820614061,XXXX-XXXX-0139,AADHAAR-4276XXXX9492,7961199136,aditi.sen888@gmail.com,"159, NH Highway, Bengaluru, Karnataka - 941144",Karnataka,Bengaluru,12.950374,77.592171,Self-Employed - Professional,1605379,5,Agriculture Income,Medium,N,N,N,N,N,24-05-2021,13-05-2022,,,,,,,,,,
590816983060,Rahul Mukherjee,Individual,Individual,28-08-1989,Arjun Mehta,Indian,Indian,Resident,India,RMXPA4974I,991831025805,XXXX-XXXX-1506,AADHAAR-8773XXXX7638,7832242035,rahul.mukherjee376@rediffmail.com,"158, Park Street, Karnal, Haryana - 323994",Haryana,Karnal,21.457528,74.602402,Consultant,127894,30,Agriculture Income,Low,N,N,N,N,Y,26-05-2017,10-06-2019,,,,,,,,,,
801464380020,Gaurav Kumar,Individual,Individual,26-11-1992,Suresh Nair,Indian,Indian,Resident,India,OUKPW2905V,390886249852,XXXX-XXXX-7562,AADHAAR-9247XXXX6637,9499970881,gaurav.kumar148@outlook.com,"482, Nehru Place, Howrah, West Bengal - 896279",West Bengal,Howrah,20.306905,77.65217,Consultant,362879,38,Business Income,Low,N,N,N,N,N,14-06-2017,04-02-2021,,,,,,,,,,
333052957077,Shri Exports,Non-Individual,Private Limited,,,Indian,,Resident,India,DDMCM9926Z,,,,8077650591,shri882@outlook.com,,Bihar,Muzaffarpur,16.929241,81.99041,Logistics,368767486,,Government Grant,Medium,N,N,N,N,N,30-09-2007,14-07-2020,05-07-2002,"Muzaffarpur, Bihar",Control through other means,N,"66 Corporate Park, Muzaffarpur, Bihar - 325872","Plot 59, Industrial Area, Muzaffarpur, Bihar","18, Residential Colony, Muzaffarpur, Bihar",U51596AZ2009PTC727006,132049849344,Mamta Bhat
785139614207,Rahul Sharma,Individual,Individual,18-02-1987,Varun Pandey,Indian,Indian,Resident,India,TEGPD8876N,512506043418,XXXX-XXXX-7591,AADHAAR-8832XXXX7581,6715087501,rahul.sharma270@rediffmail.com,"294, Nehru Place, Surat, Gujarat - 533585",Gujarat,Surat,22.749181,77.455446,Salaried - Banking,657472,2,Pension,Medium,N,N,N,Y,Y,05-01-2017,02-08-2023,,,,,,,,,,
740834073859,Rashmi Nair,Individual,Individual,25-11-1982,Akash Chatterjee,Indian,Indian,Resident,India,MZRPI4043J,513617377853,XXXX-XXXX-9322,AADHAAR-9978XXXX1055,6488151043,rashmi.nair914@yahoo.co.in,"355, Park Street, Puri, Odisha - 987791",Odisha,Puri,16.27555,80.003905,Retired,764434,2,Business Income,Medium,N,N,N,N,Y,17-08-2019,27-02-2021,,,,,,,,,,
595654249028,Lata Shah,Individual,Individual,14-06-1998,Ravi Singh,Indian,Indian,Resident,India,BXUPG3388Z,886589444836,XXXX-XXXX-7851,AADHAAR-8911XXXX9673,9648052480,lata.shah954@gmail.com,"111, Ring Road, Ahmedabad, Gujarat - 258360",Gujarat,Ahmedabad,23.03353,72.605907,Lawyer,288940,37,Family Support,Low,N,N,N,N,N,22-12-2020,30-08-2024,,,,,,,,,,
455727890091,Pradeep Kumar,Individual,Individual,05-02-1965,Arjun Shah,Indian,Indian,NRI,India,AOGPH8472W,809437823655,XXXX-XXXX-2820,AADHAAR-5632XXXX0150,6087384078,pradeep.kumar816@outlook.com,"158, Gandhi Nagar, Udaipur, Rajasthan - 755303",Rajasthan,Udaipur,17.044714,77.582469,Lawyer,383027,37,Salary,Low,N,N,N,N,N,21-03-2024,25-09-2024,,,,,,,,,,
877364920476,Sanjay Mishra,Individual,Individual,11-05-1986,Sandeep Tiwari,Indian,Indian,Resident,India,XQPPU2201Z,290651094273,XXXX-XXXX-4474,AADHAAR-5192XXXX4119,7930232206,sanjay.mishra709@outlook.com,"37, NH Highway, Dwarka, Delhi - 184074",Delhi,Dwarka,24.61771,80.753867,Salaried - Banking,313121,8,Pension,Low,N,N,N,N,N,14-08-2015,09-03-2019,,,,,,,,,,
970228413735,Shruti Mishra,Individual,Individual,16-05-1962,Arjun Sen,Indian,Indian,Resident,India,QZQPD5458I,462337188929,XXXX-XXXX-2987,AADHAAR-7133XXXX7409,7085326023,shruti.mishra337@rediffmail.com,"255, NH Highway, Varanasi, Uttar Pradesh - 937027",Uttar Pradesh,Varanasi,22.414655,80.933226,Salaried - IT,1887223,30,Agriculture Income,Medium,N,N,N,N,N,28-02-2022,16-10-2023,,,,,,,,,,
312809669075,Ashish Reddy,Individual,Individual,12-07-1982,Akash Joshi,Indian,Indian,Resident,India,BQVPN3570X,670897678744,XXXX-XXXX-4860,AADHAAR-5678XXXX0138,9087517071,ashish.reddy336@rediffmail.com,"287, Gandhi Nagar, Hyderabad, Telangana - 473130",Telangana,Hyderabad,17.372139,78.478903,Self-Employed - Professional,355991,22,Pension,Low,N,N,N,N,N,09-02-2021,26-09-2024,,,,,,,,,,
189152552108,Ravi Das,Individual,Individual,24-08-2014,Suresh Reddy,Indian,Indian,Resident,India,UJLPQ0761N,521675308995,XXXX-XXXX-1187,AADHAAR-6127XXXX9631,9190568179,ravi.das475@rediffmail.com,"475, MG Road, Lucknow, Uttar Pradesh - 240339",Uttar Pradesh,Lucknow,26.857601,80.897872,Business Owner,208659,0,Pension,Low,N,N,Y,N,Y,16-06-2023,15-06-2024,,,,,,,,,,
833785990285,Sanjay Pillai,Individual,Individual,09-07-1984,Varun Singh,Indian,Indian,Resident,India,OGQPA8750Q,496557918155,XXXX-XXXX-0231,AADHAAR-5739XXXX9306,9104104005,sanjay.pillai535@yahoo.co.in,"235, MG Road, Mumbai, Maharashtra - 131063",Maharashtra,Mumbai,19.049917,72.869287,Salaried - Banking,469126,11,Business Income,Low,N,N,N,N,Y,15-07-2019,18-05-2024,,,,,,,,,,
485307930882,Vivek Banerjee,Individual,Individual,01-06-1960,Ankit Chatterjee,Indian,Indian,Resident,India,NXKPH1477N,776361734397,XXXX-XXXX-2966,AADHAAR-8401XXXX1840,6586388645,vivek.banerjee701@yahoo.co.in,"83, Nehru Place, Nashik, Maharashtra - 242216",Maharashtra,Nashik,18.029263,74.090508,Self-Employed - Retail,248406,22,Investment Returns,Low,N,N,N,N,Y,06-02-2021,03-09-2022,,,,,,,,,,
523905329395,Anil Verma,Individual,Individual,06-03-1993,Mohit Mukherjee,Indian,Indian,Resident,India,ZEDPP6651I,500346836244,XXXX-XXXX-2220,AADHAAR-2293XXXX4334,9493892273,anil.verma697@hotmail.com,"319, Gandhi Nagar, New Delhi, Delhi - 453128",Delhi,New Delhi,28.573295,77.168998,Salaried - Government,217415,17,Pension,Low,N,N,N,Y,Y,12-03-2023,05-12-2023,,,,,,,,,,
471040130839,Pallavi Iyer,Individual,Individual,16-05-1997,Kiran Bose,Indian,Indian,Resident,India,RPRPF9817L,808695857512,XXXX-XXXX-7789,AADHAAR-6018XXXX4474,6360951786,pallavi.iyer844@gmail.com,"224, Ring Road, Thrissur, Kerala - 478142",Kerala,Thrissur,22.941684,81.118322,Student,517864,3,Rental Income,Medium,N,N,N,Y,Y,07-08-2023,19-04-2024,,,,,,,,,,
192120694168,Global Capital,Non-Individual,Sole Proprietorship,,,Indian,,Resident,India,XJDAW6371X,,,,8516464754,global585@gmail.com,,Haryana,Gurugram,22.114591,82.069111,Retail,380806464,,Government Grant,Low,N,N,N,N,N,04-03-2022,21-05-2024,10-12-2016,"Gurugram, Haryana",Control through other means,N,"70 Corporate Park, Gurugram, Haryana - 333991","Plot 403, Industrial Area, Gurugram, Haryana","652, Residential Colony, Gurugram, Haryana",U49865HV2021PTC952541,922991593180,Ravi Agarwal
384012462025,Tanvi Chauhan,Individual,Individual,13-04-2005,Ashish Banerjee,Indian,Indian,Resident,India,FMGPA2804S,397430660146,XXXX-XXXX-1834,AADHAAR-4860XXXX0326,9251010577,tanvi.chauhan213@rediffmail.com,"277, MG Road, Salem, Tamil Nadu - 997839",Tamil Nadu,Salem,16.109609,73.449728,Salaried - IT,430483,7,Salary,Low,N,N,N,Y,Y,24-03-2016,19-07-2024,,,,,,,,,,
300014836202,Ashish Mukherjee,Individual,Individual,05-11-1978,Deepak Banerjee,Indian,Indian,Resident,India,JFVPK2367W,962826615179,XXXX-XXXX-4353,AADHAAR-4537XXXX4905,7568558387,ashish.mukherjee571@gmail.com,"156, MG Road, Jalandhar, Punjab - 518405",Punjab,Jalandhar,22.729283,80.401916,Self-Employed - Professional,446925,4,Salary,Low,N,N,N,N,Y,30-01-2023,04-09-2024,,,,,,,,,,
195603969239,Vandana Das,Individual,Individual,06-10-2002,Manoj Gupta,Indian,Indian,Resident,India,HRUPY4215O,721670140649,XXXX-XXXX-5794,AADHAAR-5306XXXX1852,7674497232,vandana.das551@outlook.com,"360, Park Street, Udaipur, Rajasthan - 847115",Rajasthan,Udaipur,16.451511,76.409643,Salaried - IT,3252201,35,Business Income,High,N,N,N,Y,N,17-04-2022,23-12-2024,,,,,,,,,,
841155514490,Divya Kapoor,Individual,Individual,03-03-1999,Vivek Iyer,Indian,Indian,Resident,India,PNZPC4911J,706038695813,XXXX-XXXX-1733,AADHAAR-6818XXXX7141,8828446419,divya.kapoor926@gmail.com,"16, Ring Road, Karimnagar, Telangana - 776978",Telangana,Karimnagar,18.816934,77.574806,Doctor,4512672,7,Rental Income,High,N,N,N,N,N,27-02-2019,14-06-2024,,,,,,,,,,
332874529954,Anil Kapoor,Individual,Individual,30-05-1969,Sandeep Nair,Indian,Indian,NRI,India,SBXPS0025T,673662728049,XXXX-XXXX-1437,AADHAAR-7227XXXX6793,8479449535,anil.kapoor844@yahoo.co.in,"157, Gandhi Nagar, Durgapur, West Bengal - 140834",West Bengal,Durgapur,22.999345,81.857533,Student,368713,13,Salary,Low,N,N,N,N,N,14-02-2021,27-07-2022,,,,,,,,,,
690528552433,Sachin Yadav,Individual,Individual,06-06-1963,Sandeep Chatterjee,Indian,Indian,Resident,India,MKBPW2582K,315445685659,XXXX-XXXX-0135,AADHAAR-9755XXXX8374,6782523359,sachin.yadav924@outlook.com,"22, Station Road, Nagpur, Maharashtra - 170418",Maharashtra,Nagpur,23.624517,80.874125,Retired,2195295,37,Rental Income,Medium,N,N,N,N,N,01-01-2019,11-07-2022,,,,,,,,,,
592852787535,Komal Mukherjee,Individual,Individual,01-05-1997,Rajesh Joshi,Indian,Indian,Resident,India,ZLEPF6825H,386891035143,XXXX-XXXX-8594,AADHAAR-4998XXXX8621,8152540267,komal.mukherjee271@rediffmail.com,"142, Gandhi Nagar, Kolkata, West Bengal - 854665",West Bengal,Kolkata,22.618892,88.32905,Salaried - IT,2079800,38,Business Income,Medium,N,N,N,N,Y,27-05-2015,04-01-2018,,,,,,,,,,
652692084097,Nikhil Rao,Individual,Individual,18-07-1969,Ankit Bhat,Indian,Indian,Resident,India,AUZPP1344K,943114967995,XXXX-XXXX-2477,AADHAAR-5624XXXX5667,7798877605,nikhil.rao860@outlook.com,"457, MG Road, Jalandhar, Punjab - 455889",Punjab,Jalandhar,24.871557,80.048629,Consultant,372701,17,Investment Returns,Low,N,N,N,N,N,24-12-2019,19-07-2021,,,,,,,,,,
166756255731,Sachin Reddy,Individual,Individual,16-02-2005,Manoj Chauhan,Indian,Indian,Resident,India,FHAPW7757M,942983129924,XXXX-XXXX-8253,AADHAAR-3464XXXX5455,7875394781,sachin.reddy860@rediffmail.com,"349, Station Road, Gurugram, Haryana - 366121",Haryana,Gurugram,21.542099,76.824419,Freelancer,477060,14,Salary,Low,N,N,N,N,N,21-04-2024,04-07-2024,,,,,,,,,,
961825242710,Swati Pillai,Individual,Individual,21-12-1996,Kiran Deshmukh,Indian,Indian,Resident,India,JNEPO0251X,465813277467,XXXX-XXXX-5600,AADHAAR-3008XXXX8181,6561549699,swati.pillai680@yahoo.co.in,"466, Park Street, Kozhikode, Kerala - 201784",Kerala,Kozhikode,24.529941,78.472876,Consultant,426943,2,Business Income,Low,N,N,N,N,N,28-07-2015,21-10-2017,,,,,,,,,,
231792650241,Pallavi Kapoor,Individual,Individual,27-07-1993,Kiran Shah,Indian,Indian,Resident,India,PIXPI5026U,939720507464,XXXX-XXXX-1765,AADHAAR-3008XXXX6881,8594860857,pallavi.kapoor86@yahoo.co.in,"228, MG Road, Durgapur, West Bengal - 388909",West Bengal,Durgapur,22.057535,74.815661,Agriculture,1302072,12,Pension,High,N,N,N,N,Y,03-01-2017,15-02-2017,,,,,,,,,,
371026172969,Meera Pillai,Individual,Individual,21-02-1989,Kiran Banerjee,Indian,Indian,Resident,India,RQZPI9129V,713458061410,XXXX-XXXX-0551,AADHAAR-2299XXXX4228,8353110496,meera.pillai274@yahoo.co.in,"354, NH Highway, Saket, Delhi - 893366",Delhi,Saket,22.658014,73.637335,Self-Employed - Professional,329117,21,Agriculture Income,Low,N,N,N,Y,Y,04-03-2019,05-10-2019,,,,,,,,,,
318823964408,Anil Singh,Individual,Individual,17-06-2004,Pranav Mehta,Indian,Indian,Resident,India,ODVPA1043X,764811616285,XXXX-XXXX-3254,AADHAAR-6059XXXX9533,6638528492,anil.singh924@rediffmail.com,"260, Ring Road, Gwalior, Madhya Pradesh - 469260",Madhya Pradesh,Gwalior,16.539797,73.185221,Student,1944933,1,Salary,Medium,N,N,N,N,N,30-01-2017,23-04-2022,,,,,,,,,,
374093119067,Ashish Pillai,Individual,Individual,28-08-1972,Gaurav Nair,Indian,Indian,Resident,India,HYOPC8716Z,818130912559,XXXX-XXXX-8797,AADHAAR-2538XXXX4272,8757921688,ashish.pillai813@gmail.com,"88, MG Road, Coimbatore, Tamil Nadu - 528769",Tamil Nadu,Coimbatore,19.904337,82.131771,Student,1667810,0,Agriculture Income,Medium,N,N,N,N,N,04-11-2015,26-07-2022,,,,,,,,,,
207130398361,Sunita Verma,Individual,Individual,28-12-1969,Sanjay Sharma,Indian,Indian,Resident,India,DXTPK1855Q,847706632926,XXXX-XXXX-1681,AADHAAR-5947XXXX6579,6758187249,sunita.verma630@outlook.com,"37, Gandhi Nagar, Kolkata, West Bengal - 717202",West Bengal,Kolkata,22.6012,88.345563,Agriculture,203696,5,Investment Returns,Low,N,N,N,Y,N,15-01-2015,10-03-2019,,,,,,,,,,
253001131672,Tanvi Malhotra,Individual,Individual,09-01-1988,Nikhil Patel,Indian,Indian,Resident,India,DZVPA5804F,876137267081,XXXX-XXXX-3272,AADHAAR-4086XXXX6300,9045802722,tanvi.malhotra308@gmail.com,"82, Station Road, Chandigarh, Punjab - 601769",Punjab,Chandigarh,30.685786,76.7332,Salaried - Government,1079602,12,Agriculture Income,Medium,N,N,N,N,N,16-06-2020,11-11-2021,,,,,,,,,,
839237385607,Shweta Nair,Individual,Individual,05-03-1979,Mohit Sharma,Indian,Indian,Resident,India,WOIPW4366P,701663171541,XXXX-XXXX-8954,AADHAAR-8998XXXX4130,6888946908,shweta.nair184@yahoo.co.in,"29, NH Highway, Pune, Maharashtra - 347243",Maharashtra,Pune,18.499567,73.866139,Salaried - Government,369247,10,Salary,Low,N,N,N,N,Y,13-12-2022,24-03-2023,,,,,,,,,,
943241736518,Rekha Yadav,Individual,Individual,24-08-2014,Deepak Verma,Indian,Indian,Resident,India,YHIPI9541T,604557842245,XXXX-XXXX-5795,AADHAAR-6995XXXX7923,6979142056,rekha.yadav37@yahoo.co.in,"338, Gandhi Nagar, Surat, Gujarat - 779568",Gujarat,Surat,17.550791,76.844385,Salaried - Government,431967,0,Family Support,Low,N,N,Y,N,N,23-12-2023,06-12-2024,,,,,,,,,,
925170371472,Manoj Malhotra,Individual,Individual,16-11-1963,Tushar Agarwal,Indian,Indian,Resident,India,MIXPK3490K,446455639145,XXXX-XXXX-2597,AADHAAR-8895XXXX7328,7894124826,manoj.malhotra172@outlook.com,"62, Ring Road, Bhopal, Madhya Pradesh - 435759",Madhya Pradesh,Bhopal,23.212756,77.431218,Salaried - IT,429988,18,Family Support,Low,N,N,N,N,Y,14-01-2019,09-08-2020,,,,,,,,,,
645880031648,Anita Agarwal,Individual,Individual,14-07-2000,Ravi Bhat,Indian,Indian,Resident,India,YGLPZ4739X,991765373510,XXXX-XXXX-4252,AADHAAR-6786XXXX4608,7679652133,anita.agarwal605@rediffmail.com,"161, Park Street, Muzaffarpur, Bihar - 322213",Bihar,Muzaffarpur,23.419613,79.961726,Doctor,1328362,10,Business Income,Medium,N,N,N,N,N,25-11-2016,06-12-2022,,,,,,,,,,
806246441484,Kiran Iyer,Individual,Individual,21-12-1978,Ankit Singh,Indian,Indian,Resident,India,DXRPQ1556V,444405679682,XXXX-XXXX-0917,AADHAAR-9538XXXX2237,9301668883,kiran.iyer314@gmail.com,"62, MG Road, Bhopal, Madhya Pradesh - 555605",Madhya Pradesh,Bhopal,23.252015,77.452971,Student,245662,27,Salary,Low,N,N,N,N,Y,26-10-2022,28-10-2023,,,,,,,,,,
650754073697,Lata Nair,Individual,Individual,16-09-1993,Amit Nair,Indian,Indian,Resident,India,YTIPI3707N,672732099862,XXXX-XXXX-8516,AADHAAR-3801XXXX5928,9093145778,lata.nair813@rediffmail.com,"11, Nehru Place, Kochi, Kerala - 499947",Kerala,Kochi,9.971678,76.247885,Freelancer,179519,5,Agriculture Income,Low,N,N,N,N,N,17-04-2017,28-06-2024,,,,,,,,,,
899142018724,Sachin Bhat,Individual,Individual,08-03-1997,Sachin Joshi,Indian,Indian,Resident,India,GBKPX3991G,771984490432,XXXX-XXXX-3369,AADHAAR-8149XXXX2412,8645502026,sachin.bhat301@outlook.com,"63, Ring Road, Chennai, Tamil Nadu - 657628",Tamil Nadu,Chennai,13.108958,80.27277,Lawyer,365573,25,Pension,Low,N,N,N,Y,N,05-08-2021,18-01-2023,,,,,,,,,,
335552621127,Manoj Pandey,Individual,Individual,11-04-1987,Sanjay Sen,Indian,Indian,Resident,India,VRIPY0972V,526062855029,XXXX-XXXX-4170,AADHAAR-6518XXXX1672,9906021244,manoj.pandey58@hotmail.com,"281, Gandhi Nagar, Nashik, Maharashtra - 109777",Maharashtra,Nashik,24.446558,73.689246,Student,434541,19,Agriculture Income,Low,N,N,N,Y,N,10-11-2019,23-12-2021,,,,,,,,,,
639104916442,Jyoti Mehta,Individual,Individual,01-10-1993,Naveen Das,Indian,Indian,Resident,India,LQNPF5505K,810034501457,XXXX-XXXX-6505,AADHAAR-8728XXXX6182,7753101840,jyoti.mehta133@yahoo.co.in,"313, Station Road, Howrah, West Bengal - 369656",West Bengal,Howrah,20.084646,82.766116,Business Owner,1951200,29,Rental Income,High,N,N,N,Y,N,21-02-2017,07-07-2017,,,,,,,,,,
615798986438,Rahul Singh,Individual,Individual,18-04-2005,Ashish Sen,Indian,Indian,Resident,India,ZMWPV4603R,835168091087,XXXX-XXXX-7886,AADHAAR-5345XXXX6711,8911531738,rahul.singh130@yahoo.co.in,"189, Nehru Place, Muzaffarpur, Bihar - 443389",Bihar,Muzaffarpur,17.764231,78.195158,Business Owner,2164696,20,Agriculture Income,Medium,N,N,N,N,N,17-06-2016,01-11-2023,,,,,,,,,,
224029404318,Nikhil Reddy,Individual,Individual,28-04-2001,Mohit Mehta,Indian,Indian,Resident,India,XQYPC4115Z,354264348187,XXXX-XXXX-0599,AADHAAR-3844XXXX3511,8908481797,nikhil.reddy582@outlook.com,"464, Station Road, Gwalior, Madhya Pradesh - 151984",Madhya Pradesh,Gwalior,21.610235,78.487163,Agriculture,230394,6,Family Support,Low,N,N,N,Y,N,07-05-2017,08-03-2019,,,,,,,,,,
731554453187,Rajesh Tiwari,Individual,Individual,23-11-1992,Vikram Reddy,Indian,Indian,Resident,India,DXAPQ1427U,609791441256,XXXX-XXXX-4364,AADHAAR-9219XXXX7258,7661853396,rajesh.tiwari80@gmail.com,"395, Park Street, Gwalior, Madhya Pradesh - 878921",Madhya Pradesh,Gwalior,24.747545,77.778555,Freelancer,7420742,38,Agriculture Income,High,N,N,N,N,N,16-03-2022,11-02-2024,,,,,,,,,,
267928388399,Excel Solutions,Non-Individual,Sole Proprietorship,,,Indian,,Resident,India,MSJLR6700I,,,,9866528933,excel493@hotmail.com,,Tamil Nadu,Salem,18.675061,82.184812,Real Estate,275732350,,Investment,Medium,N,N,N,Y,N,01-11-2016,05-02-2021,12-05-2008,"Salem, Tamil Nadu",Senior Managing Official,N,"6 Corporate Park, Salem, Tamil Nadu - 874837","Plot 339, Industrial Area, Salem, Tamil Nadu","463, Residential Colony, Salem, Tamil Nadu",U17879GM2000PTC212211,483815213611,Anil Bose
892982650234,Vivek Deshmukh,Individual,Individual,26-01-1965,Arjun Verma,Indian,Indian,Resident,India,PFYPT9378Q,225140154009,XXXX-XXXX-6113,AADHAAR-3365XXXX1861,7334043760,vivek.deshmukh893@hotmail.com,"462, NH Highway, Warangal, Telangana - 401868",Telangana,Warangal,18.387236,75.379979,Self-Employed - Professional,161157,17,Rental Income,Low,N,N,N,N,Y,13-06-2022,05-05-2023,,,,,,,,,,
659800683813,Royal Enterprises,Non-Individual,Private Limited,,,Indian,,Resident,India,NURGV3148V,,,,7516589926,royal385@outlook.com,,Bihar,Gaya,22.037194,82.860465,Manufacturing,225703843,,Investment,Low,N,N,N,N,N,22-12-2019,20-02-2022,23-04-1998,"Gaya, Bihar",Control through other means,N,"93 Corporate Park, Gaya, Bihar - 672786","Plot 237, Industrial Area, Gaya, Bihar","916, Residential Colony, Gaya, Bihar",U86253WJ2022PTC794652,561017220442,Ritu Shah
658150353628,Sanjay Pillai,Individual,Individual,13-08-1997,Sachin Mukherjee,Indian,Indian,Resident,India,UTBPO2705Q,583389448168,XXXX-XXXX-9513,AADHAAR-4409XXXX1026,7970045423,sanjay.pillai680@yahoo.co.in,"373, Station Road, Thrissur, Kerala - 185344",Kerala,Thrissur,16.631565,73.89231,Self-Employed - Retail,547406,40,Business Income,Medium,N,N,N,N,N,17-11-2016,17-04-2020,,,,,,,,,,
177763481053,Swati Sen,Individual,Individual,29-09-1981,Kiran Chatterjee,Indian,Indian,Resident,India,ROJPM0232E,451549993433,XXXX-XXXX-1768,AADHAAR-6145XXXX6679,7387693957,swati.sen978@rediffmail.com,"281, NH Highway, Thiruvananthapuram, Kerala - 919736",Kerala,Thiruvananthapuram,23.320622,77.517928,Student,230344,40,Investment Returns,Low,N,N,N,N,Y,14-02-2018,28-02-2018,,,,,,,,,,
838044485205,Shweta Agarwal,Individual,Individual,21-12-1969,Rohan Singh,Indian,Indian,Resident,India,MORPV8882R,569400352998,XXXX-XXXX-7724,AADHAAR-4535XXXX0876,7845318952,shweta.agarwal809@outlook.com,"46, Gandhi Nagar, Thrissur, Kerala - 969331",Kerala,Thrissur,21.334493,77.418088,Doctor,371745,20,Pension,Low,N,N,N,N,N,13-06-2024,09-07-2024,,,,,,,,,,
195502416345,Anita Tiwari,Individual,Individual,07-06-1984,Kiran Deshmukh,Indian,Indian,Resident,India,JEJPD8157H,643660115549,XXXX-XXXX-8593,AADHAAR-6771XXXX5400,8131411919,anita.tiwari516@outlook.com,"401, Ring Road, Karnal, Haryana - 616693",Haryana,Karnal,23.556415,81.105699,Agriculture,1048415,30,Family Support,Medium,N,N,N,N,N,24-06-2020,09-08-2022,,,,,,,,,,
924837694950,Harsh Pillai,Individual,Individual,19-02-2001,Rahul Shah,Indian,Indian,Resident,India,YPBPW9399U,341434654280,XXXX-XXXX-8516,AADHAAR-5600XXXX4214,9805704442,harsh.pillai550@rediffmail.com,"444, Park Street, Mangaluru, Karnataka - 919765",Karnataka,Mangaluru,21.49325,78.519503,Agriculture,280562,24,Rental Income,Low,N,N,N,N,N,23-04-2015,15-02-2023,,,,,,,,,,
874788775251,United Holdings,Non-Individual,LLP,,,Indian,,Resident,India,ZFAAJ4455H,,,,8214838043,united565@rediffmail.com,,Rajasthan,Jodhpur,19.608036,81.366367,Healthcare,76547469,,Trading Profits,Low,N,N,N,Y,N,22-02-2002,19-10-2009,28-07-1995,"Jodhpur, Rajasthan",Shareholding > 25%,N,"15 Corporate Park, Jodhpur, Rajasthan - 799269","Plot 86, Industrial Area, Jodhpur, Rajasthan","509, Residential Colony, Jodhpur, Rajasthan",U85593DT2021PTC274697,620476629301,Anil Tiwari
815822403512,Deepak Singh,Individual,Individual,18-04-1973,Ravi Kumar,Indian,Indian,Resident,India,ZNNPB0091E,580579551565,XXXX-XXXX-2930,AADHAAR-3259XXXX2010,8715723946,deepak.singh973@outlook.com,"360, Nehru Place, Cuttack, Odisha - 424209",Odisha,Cuttack,18.082835,82.599984,Self-Employed - Retail,285655,24,Salary,Low,N,N,N,Y,Y,25-11-2018,03-09-2021,,,,,,,,,,
116091962951,Priya Mehta,Individual,Individual,05-03-1983,Harsh Mehta,Indian,Indian,Resident,India,AHKPQ8564R,689425878703,XXXX-XXXX-2810,AADHAAR-6152XXXX5952,6781851687,priya.mehta374@outlook.com,"231, Park Street, Chennai, Tamil Nadu - 722041",Tamil Nadu,Chennai,13.124234,80.27707,Self-Employed - Retail,1834038,30,Pension,Medium,N,N,N,N,Y,19-01-2023,29-09-2024,,,,,,,,,,
436366389910,Ravi Yadav,Individual,Individual,19-12-1967,Ravi Yadav,Indian,Indian,Resident,India,SMBPX0509V,501152289870,XXXX-XXXX-8915,AADHAAR-6599XXXX7529,9336494988,ravi.yadav453@outlook.com,"250, Station Road, Siliguri, West Bengal - 752582",West Bengal,Siliguri,19.761824,74.61238,Agriculture,167874,2,Investment Returns,Low,N,N,N,Y,N,22-03-2024,27-12-2024,,,,,,,,,,
424274880170,Anil Nair,Individual,Individual,18-08-1984,Ravi Banerjee,Indian,Indian,Resident,India,FMRPE7702Y,442905009017,XXXX-XXXX-3691,AADHAAR-4458XXXX8200,8673512014,anil.nair252@rediffmail.com,"86, Nehru Place, Surat, Gujarat - 286548",Gujarat,Surat,24.850647,77.161723,Agriculture,279737,26,Rental Income,Low,N,N,N,N,N,06-06-2019,19-08-2021,,,,,,,,,,
833088687251,Shruti Shah,Individual,Individual,25-09-2001,Deepak Verma,Indian,Indian,Resident,India,HKRPT1392X,390050978320,XXXX-XXXX-3317,AADHAAR-4887XXXX8591,9355920682,shruti.shah710@yahoo.co.in,"393, Gandhi Nagar, Faridabad, Haryana - 134471",Haryana,Faridabad,17.415358,82.896815,Student,3574232,5,Salary,High,N,N,N,Y,N,24-09-2021,17-06-2024,,,,,,,,,,
919513058064,Priya Patel,Individual,Individual,30-05-1988,Rajesh Reddy,Indian,Indian,Resident,India,TIMPP3833K,248512820323,XXXX-XXXX-8440,AADHAAR-3485XXXX2442,8720870261,priya.patel717@yahoo.co.in,"173, Nehru Place, Hyderabad, Telangana - 402540",Telangana,Hyderabad,17.385846,78.483724,Student,164044,16,Investment Returns,Low,N,N,N,N,N,24-03-2020,01-02-2021,,,,,,,,,,
548181777382,Sapna Bose,Individual,Individual,20-05-1981,Varun Singh,Indian,Indian,Resident,India,NWQPS3755B,804372080633,XXXX-XXXX-2643,AADHAAR-2621XXXX8697,7321782467,sapna.bose575@gmail.com,"488, Gandhi Nagar, Coimbatore, Tamil Nadu - 246834",Tamil Nadu,Coimbatore,17.383039,77.045962,Agriculture,223662,32,Business Income,Low,N,N,N,N,N,01-11-2017,04-07-2024,,,,,,,,,,
684572062369,Sneha Shah,Individual,Individual,20-02-1961,Mohit Kumar,Indian,Indian,Resident,India,HOPPZ0741W,904098805414,XXXX-XXXX-2076,AADHAAR-2702XXXX3216,9809832590,sneha.shah587@outlook.com,"117, Park Street, Hubli, Karnataka - 281890",Karnataka,Hubli,22.806924,79.603683,Self-Employed - Retail,194518,17,Rental Income,Low,N,N,N,Y,N,07-01-2016,01-12-2017,,,,,,,,,,
746623350196,Vandana Tiwari,Individual,Individual,31-03-1991,Tushar Mishra,Indian,Indian,Resident,India,FRFPG4483K,345237786268,XXXX-XXXX-6847,AADHAAR-2772XXXX0592,9895134552,vandana.tiwari19@yahoo.co.in,"440, Gandhi Nagar, Mysuru, Karnataka - 672075",Karnataka,Mysuru,21.799347,73.238106,Self-Employed - Professional,329163,24,Family Support,Low,N,N,N,Y,Y,16-04-2023,09-02-2025,,,,,,,,,,
223500909908,Manoj Sen,Individual,Individual,15-03-1982,Tushar Banerjee,Indian,Indian,Resident,India,EQKPW3998S,939009881156,XXXX-XXXX-3832,AADHAAR-6521XXXX5422,7730063182,manoj.sen871@outlook.com,"406, NH Highway, Vadodara, Gujarat - 259625",Gujarat,Vadodara,21.914999,78.749527,Doctor,1595694,18,Rental Income,Medium,N,N,N,N,N,30-11-2023,01-09-2024,,,,,,,,,,
509843899080,Aditya Reddy,Individual,Individual,15-07-1988,Tushar Mehta,Indian,Indian,Resident,India,TUGPH5276V,445430289380,XXXX-XXXX-7304,AADHAAR-5120XXXX0528,6477867016,aditya.reddy665@gmail.com,"178, Gandhi Nagar, Bhagalpur, Bihar - 395736",Bihar,Bhagalpur,19.933207,82.575944,Self-Employed - Retail,342414,19,Investment Returns,Low,N,N,N,N,N,20-05-2015,05-08-2023,,,,,,,,,,
137541842971,Kiran Chatterjee,Individual,Individual,13-10-1968,Kiran Shah,Indian,Indian,Resident,India,EFBPL0684E,880859605098,XXXX-XXXX-0087,AADHAAR-2157XXXX3158,7897301158,kiran.chatterjee945@yahoo.co.in,"228, Nehru Place, Kota, Rajasthan - 197362",Rajasthan,Kota,23.909266,78.267941,Business Owner,340229,30,Agriculture Income,Low,N,N,N,Y,N,15-12-2016,06-08-2018,,,,,,,,,,
132039261823,Deepak Mehta,Individual,Individual,28-04-2004,Sachin Sen,Indian,Indian,Resident,India,SWUPQ8912N,649871850778,XXXX-XXXX-2759,AADHAAR-9311XXXX8693,7223689035,deepak.mehta383@outlook.com,"103, Park Street, Salem, Tamil Nadu - 468971",Tamil Nadu,Salem,23.283437,73.873166,Agriculture,420965,30,Investment Returns,Low,N,N,N,Y,N,27-12-2017,03-02-2018,,,,,,,,,,
363291678793,Royal Enterprises,Non-Individual,HUF,,,Indian,,Resident,India,MEXBG0654R,,,,7596632745,royal224@yahoo.co.in,,Telangana,Hyderabad,17.393747,78.53562,Import/Export,46358915,,Business Revenue,Low,N,N,N,N,N,27-01-2020,28-02-2023,20-08-2005,"Hyderabad, Telangana",Control through other means,N,"129 Corporate Park, Hyderabad, Telangana - 724254","Plot 297, Industrial Area, Hyderabad, Telangana","784, Residential Colony, Hyderabad, Telangana",U34224IF2012PTC533070,270293949115,Deepak Rao
849724435659,Shweta Mukherjee,Individual,Individual,30-08-1990,Nikhil Das,Indian,Indian,Resident,India,DSQPZ7701G,572403987037,XXXX-XXXX-0259,AADHAAR-7904XXXX1390,6352682269,shweta.mukherjee577@rediffmail.com,"238, Station Road, Kozhikode, Kerala - 426279",Kerala,Kozhikode,21.540436,75.282651,Salaried - IT,1400992,5,Pension,Medium,N,N,N,N,N,15-03-2020,09-05-2020,,,,,,,,,,
367482788561,Pallavi Iyer,Individual,Individual,10-12-2002,Sachin Agarwal,Indian,Indian,Resident,India,YEQPF5170Q,451676224182,XXXX-XXXX-4807,AADHAAR-7075XXXX0368,9567113772,pallavi.iyer229@hotmail.com,"77, Nehru Place, Kochi, Kerala - 587240",Kerala,Kochi,9.933039,76.220858,Lawyer,992460,0,Rental Income,Medium,N,N,N,N,Y,11-01-2018,26-06-2024,,,,,,,,,,
511592721047,Vandana Banerjee,Individual,Individual,06-10-1985,Pradeep Pillai,Indian,Indian,NRI,India,EMTPZ5141S,643733764876,XXXX-XXXX-7265,AADHAAR-8754XXXX0704,9591881442,vandana.banerjee601@hotmail.com,"249, Gandhi Nagar, Bengaluru, Karnataka - 881303",Karnataka,Bengaluru,12.938803,77.621858,Salaried - IT,964743,13,Business Income,Medium,N,N,N,Y,Y,05-10-2015,04-12-2023,,,,,,,,,,
416530426795,Om Logistics,Non-Individual,Partnership,,,Indian,,Resident,India,BFOHT2257P,,,,6381817564,om100@yahoo.co.in,,Punjab,Ludhiana,24.362518,74.322436,Manufacturing,140221591,,Government Grant,Medium,N,N,N,N,N,16-08-2021,05-02-2025,09-02-2020,"Ludhiana, Punjab",Shareholding > 25%,N,"26 Corporate Park, Ludhiana, Punjab - 435829","Plot 347, Industrial Area, Ludhiana, Punjab","402, Residential Colony, Ludhiana, Punjab",U37555YQ1997PTC654479,496695381682,Tanvi Banerjee
776930685744,Tushar Pillai,Individual,Individual,19-07-1978,Deepak Mukherjee,Indian,Indian,Resident,India,BVDPU3052H,728176350778,XXXX-XXXX-9587,AADHAAR-7063XXXX8276,6744799132,tushar.pillai847@yahoo.co.in,"220, MG Road, Mumbai, Maharashtra - 144195",Maharashtra,Mumbai,19.0471,72.830853,Freelancer,187203,8,Family Support,Low,N,N,N,N,N,09-10-2023,28-02-2025,,,,,,,,,,
799049751353,National Infra,Non-Individual,Public Limited,,,Indian,,Resident,India,XEQGH5541F,,,,7840775162,national464@yahoo.co.in,,Madhya Pradesh,Indore,25.311667,74.548885,Manufacturing,412999590,,Donations,Medium,N,N,N,Y,N,11-12-2020,17-04-2022,21-01-2015,"Indore, Madhya Pradesh",Control through other means,N,"62 Corporate Park, Indore, Madhya Pradesh - 673669","Plot 332, Industrial Area, Indore, Madhya Pradesh","336, Residential Colony, Indore, Madhya Pradesh",U99464YJ2006PTC783972,651250901709,Sandeep Mukherjee
849584825427,Lata Rao,Individual,Individual,31-03-1967,Rohan Verma,Indian,Indian,Resident,India,LHWPX2894Q,867810292057,XXXX-XXXX-7393,AADHAAR-8212XXXX8817,9621407515,lata.rao40@outlook.com,"26, Ring Road, Hubli, Karnataka - 900470",Karnataka,Hubli,24.916303,76.2366,Retired,2461747,20,Family Support,Medium,N,N,N,N,N,29-11-2019,08-09-2020,,,,,,,,,,
436084116529,Kiran Mukherjee,Individual,Individual,07-11-1988,Varun Mukherjee,Indian,Indian,Resident,India,EUVPH9694V,223798929361,XXXX-XXXX-5935,AADHAAR-4346XXXX9504,9984607645,kiran.mukherjee114@gmail.com,"56, Ring Road, Kota, Rajasthan - 852601",Rajasthan,Kota,20.762984,76.485507,Salaried - IT,182670,15,Salary,Low,N,N,N,Y,Y,20-10-2019,09-07-2023,,,,,,,,,,
507257502832,Kiran Mishra,Individual,Individual,26-04-1982,Rohan Bhat,Indian,Indian,Resident,India,CQJPO7417R,856559959846,XXXX-XXXX-8325,AADHAAR-8792XXXX9555,6031352803,kiran.mishra940@yahoo.co.in,"376, MG Road, Gurugram, Haryana - 858729",Haryana,Gurugram,23.690495,75.615195,Business Owner,375876,30,Business Income,Low,N,N,N,N,N,23-05-2021,23-11-2024,,,,,,,,,,
669661007836,Harsh Joshi,Individual,Individual,07-01-1970,Deepak Mehta,Indian,Indian,Resident,India,YPRPL7484H,349481333077,XXXX-XXXX-1788,AADHAAR-8307XXXX1487,6574864057,harsh.joshi231@outlook.com,"419, NH Highway, Jodhpur, Rajasthan - 944613",Rajasthan,Jodhpur,22.445927,75.307633,Salaried - Banking,242757,31,Family Support,Low,N,N,N,N,Y,30-01-2018,30-03-2019,,,,,,,,,,
906722568603,Vandana Nair,Individual,Individual,26-02-1996,Kiran Nair,Indian,Indian,Resident,India,RSNPH9195B,418332841581,XXXX-XXXX-6447,AADHAAR-7449XXXX0893,6298744787,vandana.nair657@yahoo.co.in,"105, Gandhi Nagar, Gaya, Bihar - 757405",Bihar,Gaya,19.065618,75.542561,Self-Employed - Professional,245932,10,Family Support,Low,N,N,N,N,Y,01-12-2022,08-06-2024,,,,,,,,,,
349785347030,Rohan Bhat,Individual,Individual,05-12-1986,Anil Patel,Indian,Indian,Resident,India,QBSPS2839J,823250033188,XXXX-XXXX-5432,AADHAAR-2754XXXX0730,9906274610,rohan.bhat680@outlook.com,"7, Gandhi Nagar, Amritsar, Punjab - 610999",Punjab,Amritsar,20.568682,75.023617,Agriculture,1740971,39,Business Income,Medium,N,N,N,N,N,23-04-2024,25-02-2025,,,,,,,,,,
606222160527,Nikhil Yadav,Individual,Individual,30-09-2005,Sanjay Pandey,Indian,Indian,Resident,India,DCRPK9972J,872674508540,XXXX-XXXX-3565,AADHAAR-2221XXXX3996,8101593161,nikhil.yadav768@rediffmail.com,"109, MG Road, Indore, Madhya Pradesh - 972985",Madhya Pradesh,Indore,23.003786,82.18415,Consultant,551316,36,Family Support,High,N,N,N,N,N,27-07-2018,12-01-2025,,,,,,,,,,
919822330261,Sonal Agarwal,Individual,Individual,29-05-1980,Pradeep Bose,Indian,Indian,Resident,India,USSPX4654J,728330501604,XXXX-XXXX-5313,AADHAAR-6141XXXX0247,6133926174,sonal.agarwal191@yahoo.co.in,"280, MG Road, Bhagalpur, Bihar - 703977",Bihar,Bhagalpur,23.310058,74.597026,Business Owner,55548058,19,Salary,Medium,N,Y,N,N,N,10-03-2018,29-08-2023,,,,,,,,,,
272834193207,Vandana Sen,Individual,Individual,29-08-1997,Amit Bose,Indian,Indian,Resident,India,JLMPO2848R,653506315391,XXXX-XXXX-7847,AADHAAR-9471XXXX3013,8823545296,vandana.sen343@outlook.com,"431, Nehru Place, Kozhikode, Kerala - 693041",Kerala,Kozhikode,17.744257,76.376932,Doctor,476609,26,Business Income,Low,N,N,N,N,N,27-05-2017,11-08-2018,,,,,,,,,,
847896830251,Aditya Singh,Individual,Individual,11-07-1962,Harsh Mishra,Indian,Indian,Resident,India,DYXPD4410Y,237060231920,XXXX-XXXX-9192,AADHAAR-4958XXXX7082,6352281432,aditya.singh191@rediffmail.com,"471, Ring Road, Vadodara, Gujarat - 188350",Gujarat,Vadodara,22.738323,75.64477,Retired,1462700,7,Rental Income,Medium,N,N,N,N,N,26-08-2015,09-06-2019,,,,,,,,,,
668742854219,Rashmi Mehta,Individual,Individual,12-04-1993,Pranav Iyer,Indian,Indian,Resident,India,CSIPF2742R,700891382392,XXXX-XXXX-6512,AADHAAR-8030XXXX2057,8610818312,rashmi.mehta487@gmail.com,"361, Park Street, Patna, Bihar - 745067",Bihar,Patna,25.649692,85.182021,Consultant,242251,3,Salary,Low,N,N,N,Y,Y,30-07-2021,21-05-2024,,,,,,,,,,
690651327135,Anjali Pillai,Individual,Individual,10-08-1992,Pranav Tiwari,Indian,Indian,Resident,India,UGJPW4459P,513230840549,XXXX-XXXX-7820,AADHAAR-9114XXXX3628,9953567216,anjali.pillai688@yahoo.co.in,"97, Gandhi Nagar, New Delhi, Delhi - 133095",Delhi,New Delhi,28.573626,77.252187,Self-Employed - Professional,2108064,19,Business Income,Medium,N,N,N,Y,N,27-07-2018,27-07-2024,,,,,,,,,,
882753447390,Star Ventures,Non-Individual,HUF,,,Indian,,Resident,India,GOOFX1758G,,,,6095240945,star668@rediffmail.com,,Tamil Nadu,Salem,20.940717,79.363793,Agriculture,493039636,,Investment,High,N,N,N,N,N,25-07-2017,21-08-2023,27-04-2016,"Salem, Tamil Nadu",Senior Managing Official,N,"178 Corporate Park, Salem, Tamil Nadu - 896131","Plot 487, Industrial Area, Salem, Tamil Nadu","750, Residential Colony, Salem, Tamil Nadu",U21141RR2006PTC407321,373130761045,Naveen Sharma
529113761718,Sunita Agarwal,Individual,Individual,25-10-1961,Ashish Agarwal,Indian,Indian,Resident,India,AABPB8906N,261916785876,XXXX-XXXX-5711,AADHAAR-8782XXXX3144,8983239958,sunita.agarwal208@rediffmail.com,"21, MG Road, Bhopal, Madhya Pradesh - 922017",Madhya Pradesh,Bhopal,23.248847,77.379714,Business Owner,6692707,29,Agriculture Income,High,N,N,N,N,N,05-09-2023,21-08-2024,,,,,,,,,,
599384170265,Varun Nair,Individual,Individual,06-02-1964,Gaurav Singh,Indian,Indian,Resident,India,YPQPB4094L,338623804256,XXXX-XXXX-6447,AADHAAR-6584XXXX0186,8693242010,varun.nair261@outlook.com,"309, Ring Road, Siliguri, West Bengal - 975499",West Bengal,Siliguri,16.397531,82.813954,Doctor,408502,25,Salary,Low,N,N,N,N,N,07-02-2016,04-01-2022,,,,,,,,,,
316375967389,Komal Mukherjee,Individual,Individual,09-09-1974,Varun Agarwal,Indian,Indian,Resident,India,WYLPT5820P,735630025615,XXXX-XXXX-6215,AADHAAR-9784XXXX7171,8002413438,komal.mukherjee294@gmail.com,"71, Gandhi Nagar, Jalandhar, Punjab - 442380",Punjab,Jalandhar,18.389627,75.164317,Salaried - IT,2403480,22,Investment Returns,Medium,N,N,N,N,Y,01-11-2021,10-08-2024,,,,,,,,,,
570734500791,Priya Gupta,Individual,Individual,26-12-2006,Rajesh Mehta,Indian,Indian,NRI,India,XBYPN8790R,941928382202,XXXX-XXXX-9143,AADHAAR-9854XXXX5795,7041299564,priya.gupta265@hotmail.com,"388, Ring Road, Kochi, Kerala - 321282",Kerala,Kochi,9.883304,76.29586,Salaried - Banking,2351700,8,Family Support,Medium,N,N,N,N,N,15-01-2022,02-01-2024,,,,,,,,,,
872005949589,Akash Sharma,Individual,Individual,27-02-1979,Aditya Agarwal,Indian,Indian,Resident,India,KQOPZ0681Y,349016469847,XXXX-XXXX-0331,AADHAAR-7368XXXX7022,8353395386,akash.sharma712@hotmail.com,"473, Gandhi Nagar, Jaipur, Rajasthan - 734603",Rajasthan,Jaipur,26.863217,75.789456,Agriculture,351862,36,Business Income,Low,N,N,N,N,Y,11-02-2017,23-07-2024,,,,,,,,,,
223563618474,Anil Shah,Individual,Individual,24-12-1996,Yash Deshmukh,Indian,Indian,Resident,India,QVUPK0763J,503009707028,XXXX-XXXX-9884,AADHAAR-6763XXXX8803,7638890228,anil.shah595@hotmail.com,"24, Park Street, Jabalpur, Madhya Pradesh - 923689",Madhya Pradesh,Jabalpur,20.482575,79.510975,Agriculture,360452,32,Pension,Low,N,N,N,N,N,31-01-2021,15-02-2025,,,,,,,,,,
885523929290,Akash Shah,Individual,Individual,12-07-2000,Tushar Chatterjee,Indian,Indian,Resident,India,BCAPA6252Q,233386502608,XXXX-XXXX-6880,AADHAAR-5093XXXX5253,8070753011,akash.shah734@outlook.com,"459, NH Highway, Patna, Bihar - 100636",Bihar,Patna,25.648587,85.140726,Salaried - Banking,833593,38,Business Income,Medium,N,N,N,N,Y,05-12-2023,09-07-2024,,,,,,,,,,
144127275927,Geeta Yadav,Individual,Individual,12-05-1994,Sandeep Banerjee,Indian,Indian,Resident,India,CBXPN8013O,579951269423,XXXX-XXXX-5944,AADHAAR-4807XXXX1994,9923827030,geeta.yadav942@hotmail.com,"400, MG Road, Ahmedabad, Gujarat - 961302",Gujarat,Ahmedabad,23.000625,72.594128,Student,7193221,0,Investment Returns,High,N,N,N,Y,N,03-05-2016,11-11-2016,,,,,,,,,,
516255262290,Mamta Chatterjee,Individual,Individual,04-11-1967,Naveen Mehta,Indian,Indian,Resident,India,EYDPA3747R,300930071962,XXXX-XXXX-3045,AADHAAR-7831XXXX0702,6748885831,mamta.chatterjee230@yahoo.co.in,"85, Nehru Place, Faridabad, Haryana - 884724",Haryana,Faridabad,19.716131,78.560144,Retired,317590,16,Investment Returns,Low,N,N,N,Y,Y,26-09-2022,19-01-2024,,,,,,,,,,
514212099178,Yash Mishra,Individual,Individual,13-06-1982,Sandeep Banerjee,Indian,Indian,Resident,Other,QHIPH2163H,429364896624,XXXX-XXXX-2155,AADHAAR-3998XXXX9205,7471288265,yash.mishra80@hotmail.com,"8, Nehru Place, Mysuru, Karnataka - 738861",Karnataka,Mysuru,20.140513,80.545776,Freelancer,319319,5,Pension,Low,N,N,N,N,N,28-03-2023,02-06-2024,,,,,,,,,,
807809737263,Silver Enterprises,Non-Individual,Government Body,,,Indian,,Resident,India,CXHTH9428U,,,,6345817058,silver527@yahoo.co.in,,Rajasthan,Udaipur,17.122202,79.808057,Trading,214418681,,Donations,Medium,N,N,N,N,N,01-10-2023,25-02-2025,15-03-2018,"Udaipur, Rajasthan",Senior Managing Official,Y,"31 Corporate Park, Udaipur, Rajasthan - 841546","Plot 259, Industrial Area, Udaipur, Rajasthan","637, Residential Colony, Udaipur, Rajasthan",U41415OF1993PTC955800,199413086006,Tushar Verma
958779957614,Shri Logistics,Non-Individual,Government Body,,,Indian,,Resident,India,JCJGM5351X,,,,6340807833,shri558@outlook.com,,Haryana,Karnal,20.445761,82.677927,Import/Export,63248211,,Business Revenue,Low,N,N,N,N,N,20-07-2018,29-07-2022,14-11-2013,"Karnal, Haryana",Shareholding > 25%,N,"128 Corporate Park, Karnal, Haryana - 217442","Plot 19, Industrial Area, Karnal, Haryana","900, Residential Colony, Karnal, Haryana",U75743JX1999PTC441182,596196478178,Bhavna Malhotra
247560547769,Vandana Banerjee,Individual,Individual,14-04-1961,Ashish Kumar,Indian,Indian,Resident,Other,EGUPY4596G,778842801115,XXXX-XXXX-0931,AADHAAR-8764XXXX4432,8684528567,vandana.banerjee341@yahoo.co.in,"392, Nehru Place, Agra, Uttar Pradesh - 938299",Uttar Pradesh,Agra,19.505157,73.781659,Retired,1434354,38,Family Support,Medium,N,N,N,N,N,04-01-2018,25-11-2018,,,,,,,,,,
423830954938,Mamta Sharma,Individual,Individual,15-08-1975,Akash Sharma,Indian,Indian,Resident,India,LDCPK3931R,732993853114,XXXX-XXXX-2721,AADHAAR-7621XXXX2111,8049116583,mamta.sharma215@rediffmail.com,"440, Nehru Place, Nizamabad, Telangana - 105194",Telangana,Nizamabad,20.134288,81.341672,Freelancer,231351,14,Business Income,Low,N,N,N,N,N,20-05-2017,05-10-2020,,,,,,,,,,
541740156800,Vivek Kumar,Individual,Individual,19-06-1994,Naveen Iyer,Indian,Indian,Resident,India,NPMPF0747T,863986603210,XXXX-XXXX-6324,AADHAAR-9033XXXX9582,8909293556,vivek.kumar553@outlook.com,"81, Station Road, Siliguri, West Bengal - 532278",West Bengal,Siliguri,23.044035,74.90215,Doctor,1143114,27,Business Income,High,Y,N,N,Y,N,16-05-2019,30-09-2020,,,,,,,,,,
194331534995,Anil Joshi,Individual,Individual,27-01-1977,Rajesh Pandey,Indian,Indian,Resident,India,VZSPH6681H,289610748694,XXXX-XXXX-1943,AADHAAR-4965XXXX4507,7669293319,anil.joshi595@yahoo.co.in,"456, Station Road, Madurai, Tamil Nadu - 430095",Tamil Nadu,Madurai,20.288656,82.225965,Doctor,274693,14,Investment Returns,Low,N,N,N,N,Y,28-10-2019,01-04-2024,,,,,,,,,,
313260982179,Mohit Bose,Individual,Individual,06-09-1969,Pradeep Rao,Indian,Indian,Resident,India,EODPK4609F,218724403608,XXXX-XXXX-5535,AADHAAR-5676XXXX1780,7127961085,mohit.bose654@rediffmail.com,"393, Park Street, Madurai, Tamil Nadu - 149603",Tamil Nadu,Madurai,21.929891,79.78732,Consultant,163919,14,Pension,Low,N,N,N,N,Y,19-04-2021,21-09-2021,,,,,,,,,,
962027685636,Komal Singh,Individual,Individual,01-08-1961,Suresh Das,Indian,Indian,Resident,India,HQGPK4040D,639728106322,XXXX-XXXX-6424,AADHAAR-7300XXXX9617,6053792701,komal.singh564@outlook.com,"457, Nehru Place, Gurugram, Haryana - 994894",Haryana,Gurugram,22.479568,78.072595,Retired,1394023,22,Investment Returns,High,N,N,N,N,N,30-11-2021,12-01-2023,,,,,,,,,,
172963815675,Kiran Mishra,Individual,Individual,05-09-1986,Sandeep Rao,Indian,Indian,Resident,India,WXHPD7779F,836369515338,XXXX-XXXX-0852,AADHAAR-9970XXXX8910,9053931096,kiran.mishra48@hotmail.com,"336, NH Highway, Rourkela, Odisha - 854914",Odisha,Rourkela,16.570054,73.593629,Salaried - Government,802909,36,Pension,Medium,N,N,N,N,N,12-01-2024,03-08-2024,,,,,,,,,,
746388253985,Varun Kapoor,Individual,Individual,18-07-2005,Rahul Kapoor,Indian,Indian,Resident,India,UOZPY5539D,972793777713,XXXX-XXXX-9526,AADHAAR-3720XXXX6020,7847800381,varun.kapoor190@gmail.com,"159, Park Street, Mysuru, Karnataka - 908916",Karnataka,Mysuru,18.835103,80.347459,Salaried - IT,2344207,27,Pension,Medium,N,N,N,N,N,09-02-2023,12-08-2023,,,,,,,,,,
379351387477,Rashmi Deshmukh,Individual,Individual,06-06-2001,Deepak Malhotra,Indian,Indian,Resident,India,CFEPQ7285O,517143927618,XXXX-XXXX-7724,AADHAAR-6320XXXX3972,9489759787,rashmi.deshmukh687@outlook.com,"156, Ring Road, Panipat, Haryana - 765210",Haryana,Panipat,16.762262,77.159809,Salaried - Government,6423975,0,Agriculture Income,High,N,N,N,N,N,15-01-2023,15-05-2023,,,,,,,,,,
438890818275,Akash Tiwari,Individual,Individual,22-03-2013,Naveen Chauhan,Indian,Indian,Resident,India,NOQPB6789T,373529323463,XXXX-XXXX-1011,AADHAAR-3927XXXX2762,7905854779,akash.tiwari424@rediffmail.com,"221, Nehru Place, Varanasi, Uttar Pradesh - 714348",Uttar Pradesh,Varanasi,24.372631,75.424445,Business Owner,425289,0,Salary,Low,N,N,Y,N,N,09-06-2018,31-01-2025,,,,,,,,,,
998381190536,Pradeep Das,Individual,Individual,02-03-1998,Amit Das,Indian,Indian,NRI,India,DXDPE9817P,242350195939,XXXX-XXXX-3521,AADHAAR-8032XXXX2377,7075102235,pradeep.das965@yahoo.co.in,"453, NH Highway, Bhagalpur, Bihar - 751986",Bihar,Bhagalpur,18.314345,78.822903,Retired,311565,12,Family Support,Low,N,N,N,Y,N,28-11-2018,31-05-2023,,,,,,,,,,
197745373796,Neha Das,Individual,Individual,27-05-1961,Varun Pillai,Indian,Indian,Resident,India,PFWPP6933H,301714553276,XXXX-XXXX-4171,AADHAAR-3995XXXX5804,6862215717,neha.das930@hotmail.com,"81, MG Road, Salem, Tamil Nadu - 337880",Tamil Nadu,Salem,15.534653,80.047938,Student,1288694,20,Rental Income,Medium,N,N,N,N,N,15-01-2023,15-06-2024,,,,,,,,,,
809535144120,Shri Trading Co,Non-Individual,Partnership,,,Indian,,Resident,India,INCHS1350M,,,,9416470659,shri952@hotmail.com,,Rajasthan,Jaipur,26.873965,75.75825,Manufacturing,486055635,,Trading Profits,High,N,N,N,N,N,24-05-2013,04-04-2019,19-09-2012,"Jaipur, Rajasthan",Control through other means,N,"195 Corporate Park, Jaipur, Rajasthan - 343402","Plot 345, Industrial Area, Jaipur, Rajasthan","692, Residential Colony, Jaipur, Rajasthan",U12932KS1999PTC255528,565268287387,Kavita Rao
171344788844,Priya Iyer,Individual,Individual,25-06-1983,Anil Pandey,Indian,Indian,Resident,India,CTQPE4508U,366485059904,XXXX-XXXX-9092,AADHAAR-3468XXXX6264,8719000078,priya.iyer95@rediffmail.com,"178, Ring Road, Ahmedabad, Gujarat - 685510",Gujarat,Ahmedabad,22.997131,72.601715,Agriculture,1090186,27,Business Income,Medium,N,N,N,N,N,03-09-2015,21-04-2024,,,,,,,,,,
791207864135,Vikram Chatterjee,Individual,Individual,03-12-1985,Sandeep Tiwari,Indian,Indian,Resident,India,YZSPY9000Z,929832869095,XXXX-XXXX-3880,AADHAAR-5459XXXX7250,9867454855,vikram.chatterjee863@yahoo.co.in,"151, Ring Road, Siliguri, West Bengal - 879030",West Bengal,Siliguri,17.544383,78.679079,Agriculture,2776303,2,Pension,High,N,N,N,Y,N,31-03-2024,21-12-2024,,,,,,,,,,
458885969595,Vandana Bose,Individual,Individual,14-05-1999,Pranav Agarwal,Indian,Indian,Resident,India,YXRPJ0884X,849961214240,XXXX-XXXX-9420,AADHAAR-3624XXXX0592,7375599499,vandana.bose216@outlook.com,"288, Nehru Place, Warangal, Telangana - 974483",Telangana,Warangal,21.362505,77.763832,Salaried - IT,1296775,8,Investment Returns,Medium,N,N,N,N,Y,18-09-2023,09-09-2024,,,,,,,,,,
328673082356,Apex Infra,Non-Individual,Sole Proprietorship,,,Indian,,Resident,India,VJSGX2360A,,,,7219478327,apex385@yahoo.co.in,,Gujarat,Rajkot,17.035209,74.377124,Agriculture,477097740,,Trading Profits,Low,N,N,N,N,N,20-09-1997,21-05-2002,23-01-1991,"Rajkot, Gujarat",Senior Managing Official,N,"162 Corporate Park, Rajkot, Gujarat - 259618","Plot 359, Industrial Area, Rajkot, Gujarat","629, Residential Colony, Rajkot, Gujarat",U56782CU2022PTC260450,477905524920,Ravi Pillai
930318804259,Asha Singh,Individual,Individual,04-12-1992,Sachin Singh,Indian,Indian,Resident,India,TSJPG8908C,233231282612,XXXX-XXXX-4828,AADHAAR-7485XXXX6790,7527634492,asha.singh214@yahoo.co.in,"86, Station Road, Kolkata, West Bengal - 201578",West Bengal,Kolkata,22.598075,88.413418,Retired,178396,27,Family Support,Low,N,N,N,N,N,09-03-2019,10-06-2021,,,,,,,,,,
570301956378,Royal Services,Non-Individual,Public Limited,,,Indian,,Resident,India,JWZFZ2315R,,,,9897524498,royal244@outlook.com,,Delhi,Rohini,21.889016,77.625247,Retail,78117134,,Donations,Low,N,N,N,Y,N,19-08-2019,23-12-2020,24-03-1997,"Rohini, Delhi",Senior Managing Official,N,"130 Corporate Park, Rohini, Delhi - 309405","Plot 261, Industrial Area, Rohini, Delhi","594, Residential Colony, Rohini, Delhi",U45096YU2005PTC517925,533445090189,Shruti Chauhan
605772547244,Anita Mehta,Individual,Individual,08-04-1985,Aditya Patel,Indian,Indian,Resident,India,LMHPE8010I,245024331541,XXXX-XXXX-8824,AADHAAR-5714XXXX3112,8787339248,anita.mehta44@gmail.com,"72, Gandhi Nagar, Cuttack, Odisha - 146830",Odisha,Cuttack,23.49461,79.785638,Freelancer,332214,13,Business Income,Low,N,N,N,N,N,25-03-2018,13-03-2022,,,,,,,,,,
288922835965,Geeta Mehta,Individual,Individual,02-02-2005,Yash Mukherjee,Indian,Indian,Resident,India,TVEPN4916C,601002470296,XXXX-XXXX-7027,AADHAAR-8697XXXX6781,6826836644,geeta.mehta193@gmail.com,"327, Nehru Place, Bhagalpur, Bihar - 437833",Bihar,Bhagalpur,15.535417,73.700911,Salaried - IT,195412,40,Investment Returns,Low,N,N,N,N,N,27-03-2016,15-04-2021,,,,,,,,,,
709243253862,Ritu Rao,Individual,Individual,28-08-1993,Sandeep Mehta,Indian,Indian,Resident,Other,VVXPK5214X,600906943605,XXXX-XXXX-2116,AADHAAR-6548XXXX7456,7008929107,ritu.rao412@yahoo.co.in,"30, MG Road, Bengaluru, Karnataka - 942829",Karnataka,Bengaluru,13.021096,77.572139,Salaried - IT,298240,26,Business Income,Low,N,N,N,N,N,10-09-2022,31-12-2024,,,,,,,,,,
504003846456,Pranav Kumar,Individual,Individual,09-06-2001,Kiran Chauhan,Indian,Indian,Resident,India,INJPO4416Z,463407500519,XXXX-XXXX-7442,AADHAAR-5542XXXX1102,9108422874,pranav.kumar339@gmail.com,"88, Nehru Place, Bhagalpur, Bihar - 664655",Bihar,Bhagalpur,25.072005,74.768935,Consultant,449040,15,Family Support,Low,N,N,N,N,N,11-07-2021,17-11-2021,,,,,,,,,,
297170706333,Silver Industries,Non-Individual,Public Limited,,,Indian,,Resident,India,TMTHJ5218S,,,,7889494493,silver329@outlook.com,,Haryana,Panipat,21.169923,78.181108,Retail,496662128,,Investment,Low,N,N,N,N,N,25-12-2015,19-09-2019,15-02-2009,"Panipat, Haryana",Senior Managing Official,N,"14 Corporate Park, Panipat, Haryana - 238112","Plot 162, Industrial Area, Panipat, Haryana","933, Residential Colony, Panipat, Haryana",U56244JO2014PTC898916,764367817357,Anita Verma
384925658022,Rekha Sen,Individual,Individual,17-09-1972,Mohit Chatterjee,Indian,Indian,NRI,India,UYNPQ8212A,679585634712,XXXX-XXXX-6083,AADHAAR-4248XXXX7196,8150060775,rekha.sen425@gmail.com,"475, MG Road, Vadodara, Gujarat - 654453",Gujarat,Vadodara,24.869361,73.942365,Agriculture,486282,21,Business Income,Low,N,N,N,Y,N,07-11-2015,06-04-2024,,,,,,,,,,
170890988994,Tushar Nair,Individual,Individual,01-02-1965,Suresh Mehta,Indian,Indian,Resident,India,SSIPB1123S,287126506996,XXXX-XXXX-2647,AADHAAR-9639XXXX7524,8248449436,tushar.nair137@hotmail.com,"106, Station Road, Coimbatore, Tamil Nadu - 327498",Tamil Nadu,Coimbatore,21.794254,76.311417,Lawyer,266489,12,Family Support,Low,N,N,N,Y,N,01-04-2016,05-12-2023,,,,,,,,,,
901218793786,Geeta Shah,Individual,Individual,22-01-1983,Aditya Mehta,Indian,Indian,Resident,India,YXOPE2541B,662657382958,XXXX-XXXX-2410,AADHAAR-5496XXXX8699,6816812792,geeta.shah509@hotmail.com,"439, Nehru Place, Jodhpur, Rajasthan - 345449",Rajasthan,Jodhpur,20.874764,76.732589,Doctor,415265,31,Salary,Low,N,N,N,N,N,13-12-2021,20-08-2022,,,,,,,,,,
782364384204,Geeta Verma,Individual,Individual,24-11-1976,Tushar Chauhan,Indian,Indian,Resident,India,CYZPN6279B,872364012409,XXXX-XXXX-4992,AADHAAR-3224XXXX6414,6841720077,geeta.verma905@rediffmail.com,"64, Gandhi Nagar, Jodhpur, Rajasthan - 415907",Rajasthan,Jodhpur,18.996342,78.991918,Student,508639,27,Investment Returns,Medium,N,N,N,N,Y,16-06-2018,26-04-2020,,,,,,,,,,
109385141935,Jyoti Das,Individual,Individual,29-11-1962,Rahul Rao,Indian,Indian,Resident,India,YINPI3514V,745110552751,XXXX-XXXX-3758,AADHAAR-2687XXXX9244,9682336930,jyoti.das456@outlook.com,"48, Station Road, Madurai, Tamil Nadu - 367855",Tamil Nadu,Madurai,19.225659,79.437142,Salaried - Banking,301946,28,Agriculture Income,Low,N,N,N,N,N,11-12-2017,08-11-2023,,,,,,,,,,
342717059925,Deepak Malhotra,Individual,Individual,25-04-1977,Vivek Mehta,Indian,Indian,NRI,India,DDGPF9908H,367340700668,XXXX-XXXX-2513,AADHAAR-5860XXXX9871,6286241801,deepak.malhotra392@hotmail.com,"221, MG Road, Ludhiana, Punjab - 820940",Punjab,Ludhiana,17.64198,75.791039,Freelancer,56856298,13,Salary,High,Y,Y,N,N,Y,30-09-2020,26-04-2024,,,,,,,,,,
232980241482,Naveen Sen,Individual,Individual,24-08-1981,Sandeep Patel,Indian,Indian,Resident,India,OAYPZ6030T,500859203129,XXXX-XXXX-1259,AADHAAR-8317XXXX4559,6784838112,naveen.sen827@yahoo.co.in,"29, Station Road, Bhopal, Madhya Pradesh - 672564",Madhya Pradesh,Bhopal,23.243554,77.38286,Self-Employed - Retail,1217069,24,Pension,Medium,N,N,N,Y,N,05-10-2016,05-11-2019,,,,,,,,,,
918082168293,Mamta Pillai,Individual,Individual,27-03-2005,Ravi Pandey,Indian,Indian,Resident,India,DLOPI2789X,664475287983,XXXX-XXXX-4293,AADHAAR-7766XXXX9936,7386792874,mamta.pillai606@gmail.com,"179, Park Street, Pune, Maharashtra - 524572",Maharashtra,Pune,18.546139,73.855724,Salaried - Government,410540,32,Salary,Low,N,N,N,Y,N,18-05-2023,03-12-2024,,,,,,,,,,
623539013982,Sonal Iyer,Individual,Individual,14-10-1965,Suresh Bhat,Indian,Indian,Resident,India,OTRPK4333I,801728086781,XXXX-XXXX-8303,AADHAAR-4403XXXX8378,6955814501,sonal.iyer179@hotmail.com,"136, Ring Road, Jodhpur, Rajasthan - 560351",Rajasthan,Jodhpur,18.387899,82.775924,Salaried - Banking,2247082,29,Salary,Medium,N,N,N,Y,N,19-10-2018,08-02-2024,,,,,,,,,,
498234558919,Rajesh Agarwal,Individual,Individual,11-01-1997,Naveen Singh,Indian,Indian,Resident,India,NNLPH0941T,581701411200,XXXX-XXXX-0019,AADHAAR-8369XXXX9071,6701491397,rajesh.agarwal440@outlook.com,"14, Gandhi Nagar, Jodhpur, Rajasthan - 978455",Rajasthan,Jodhpur,15.824385,77.577435,Agriculture,686491,7,Salary,High,N,N,N,Y,N,08-01-2021,15-10-2023,,,,,,,,,,
477378262426,Gaurav Malhotra,Individual,Individual,23-05-1977,Deepak Sharma,Indian,Indian,Resident,India,YAQPY9509S,279638374477,XXXX-XXXX-7613,AADHAAR-6193XXXX2999,9409730935,gaurav.malhotra669@hotmail.com,"416, Nehru Place, Chennai, Tamil Nadu - 876326",Tamil Nadu,Chennai,13.052571,80.317182,Salaried - Government,192760,20,Agriculture Income,Low,N,N,N,N,N,07-12-2021,20-10-2023,,,,,,,,,,
856702910551,Neha Malhotra,Individual,Individual,15-12-1998,Harsh Singh,Indian,Indian,Resident,India,XUXPW3428Z,515700390332,XXXX-XXXX-8462,AADHAAR-5690XXXX9104,9416053607,neha.malhotra702@gmail.com,"377, Ring Road, Agra, Uttar Pradesh - 782399",Uttar Pradesh,Agra,20.723284,82.558276,Self-Employed - Professional,1224846,35,Business Income,Medium,N,N,N,N,N,06-08-2018,04-08-2022,,,,,,,,,,
229601288989,Ritu Kumar,Individual,Individual,04-10-2005,Mohit Iyer,Indian,Indian,Resident,India,VPFPL5781T,303288432577,XXXX-XXXX-1873,AADHAAR-3151XXXX4050,8960035265,ritu.kumar329@yahoo.co.in,"123, Park Street, Surat, Gujarat - 503895",Gujarat,Surat,16.20998,75.512545,Retired,13366708,16,Salary,Low,N,Y,N,N,N,09-02-2020,01-03-2022,,,,,,,,,,
791245616391,Vikram Bose,Individual,Individual,19-10-1975,Sanjay Agarwal,Indian,Indian,Resident,India,GGOPX4961P,730998120900,XXXX-XXXX-0629,AADHAAR-5083XXXX7883,6594634233,vikram.bose553@yahoo.co.in,"414, Gandhi Nagar, Nashik, Maharashtra - 956698",Maharashtra,Nashik,18.879244,83.001171,Salaried - Banking,1543478,33,Rental Income,High,Y,N,N,N,N,03-02-2020,28-10-2024,,,,,,,,,,
898984704887,Rashmi Bhat,Individual,Individual,29-12-1989,Vikram Tiwari,Indian,Indian,Resident,Other,XNUPN4470O,636894123610,XXXX-XXXX-8506,AADHAAR-9843XXXX0570,6895486351,rashmi.bhat269@gmail.com,"443, Gandhi Nagar, Pune, Maharashtra - 568041",Maharashtra,Pune,18.504457,73.87058,Salaried - Government,165757,2,Investment Returns,Low,N,N,N,N,N,13-06-2023,31-05-2024,,,,,,,,,,
152423379686,Komal Gupta,Individual,Individual,07-09-1994,Vivek Chatterjee,Indian,Indian,Resident,India,JUFPQ0033M,309834825817,XXXX-XXXX-4806,AADHAAR-7256XXXX5327,8017713154,komal.gupta141@outlook.com,"91, Park Street, Lucknow, Uttar Pradesh - 596973",Uttar Pradesh,Lucknow,26.814591,80.930287,Business Owner,461770,13,Agriculture Income,Low,N,N,N,N,N,25-01-2020,06-10-2022,,,,,,,,,,
745134138898,Anita Pillai,Individual,Individual,28-08-1965,Yash Mishra,Indian,Indian,Resident,India,WNAPQ9804S,272380491836,XXXX-XXXX-8423,AADHAAR-6659XXXX8276,7327619073,anita.pillai772@outlook.com,"283, NH Highway, Bengaluru, Karnataka - 773363",Karnataka,Bengaluru,13.014589,77.623986,Freelancer,273888,30,Agriculture Income,Low,N,N,N,N,N,22-07-2016,08-06-2023,,,,,,,,,,
532488874822,Shweta Mukherjee,Individual,Individual,11-05-1966,Pranav Chatterjee,Indian,Indian,Resident,India,RCMPX0017O,725207158838,XXXX-XXXX-5285,AADHAAR-6075XXXX4590,6145072403,shweta.mukherjee455@hotmail.com,"224, Gandhi Nagar, Panipat, Haryana - 395682",Haryana,Panipat,16.480625,80.66179,Business Owner,258213,5,Family Support,Low,N,N,N,N,N,17-07-2019,07-03-2021,,,,,,,,,,
346956605066,Priya Singh,Individual,Individual,30-04-1999,Varun Bose,Indian,Indian,Resident,India,PNIPH9114L,776228190733,XXXX-XXXX-9621,AADHAAR-3412XXXX5062,9775650304,priya.singh880@yahoo.co.in,"280, Station Road, Mumbai, Maharashtra - 744981",Maharashtra,Mumbai,19.076079,72.83628,Salaried - Banking,1193044,11,Rental Income,Medium,N,N,N,Y,N,05-12-2023,28-02-2025,,,,,,,,,,
830836537908,Bhavna Kumar,Individual,Individual,12-09-1987,Ravi Agarwal,Indian,Indian,Resident,India,IZPPO5857Q,524367560642,XXXX-XXXX-3173,AADHAAR-2411XXXX3874,9879620479,bhavna.kumar305@gmail.com,"356, Gandhi Nagar, Karimnagar, Telangana - 163033",Telangana,Karimnagar,24.959773,75.423197,Consultant,790741,32,Investment Returns,Medium,N,N,N,Y,Y,04-08-2015,30-03-2024,,,,,,,,,,
811568649309,Vandana Rao,Individual,Individual,09-02-1992,Rahul Bose,Indian,Indian,Resident,India,WOAPD8936W,980524766713,XXXX-XXXX-9626,AADHAAR-6674XXXX8282,7443276329,vandana.rao970@rediffmail.com,"338, Gandhi Nagar, Gwalior, Madhya Pradesh - 719640",Madhya Pradesh,Gwalior,19.085551,79.847803,Consultant,50060220,37,Investment Returns,Low,N,Y,N,N,N,27-08-2022,17-02-2025,,,,,,,,,,
835775418555,Star Ventures,Non-Individual,HUF,,,Indian,,Resident,India,GNFBI6944U,,,,8145635480,star991@gmail.com,,Kerala,Thrissur,19.282256,74.475958,Construction,248270524,,Government Grant,Medium,N,N,N,N,N,11-06-2022,26-09-2024,11-02-2020,"Thrissur, Kerala",Senior Managing Official,N,"6 Corporate Park, Thrissur, Kerala - 658605","Plot 254, Industrial Area, Thrissur, Kerala","513, Residential Colony, Thrissur, Kerala",U57095NC1996PTC273541,348522729464,Sanjay Singh
771248842350,Aditi Singh,Individual,Individual,25-01-1990,Nikhil Tiwari,Indian,Indian,Resident,India,GRWPG4464V,962980615713,XXXX-XXXX-8262,AADHAAR-3454XXXX8043,9658118038,aditi.singh804@gmail.com,"74, Ring Road, Pune, Maharashtra - 123636",Maharashtra,Pune,18.501371,73.850137,Salaried - Government,139730,17,Salary,Low,N,N,N,Y,N,06-06-2023,30-09-2023,,,,,,,,,,
332069319358,Ashish Reddy,Individual,Individual,25-11-2002,Varun Chatterjee,Indian,Indian,Resident,India,BIZPO1378M,235930911133,XXXX-XXXX-5954,AADHAAR-5625XXXX0243,8401593883,ashish.reddy660@rediffmail.com,"164, Nehru Place, Hubli, Karnataka - 827891",Karnataka,Hubli,22.312382,77.853367,Salaried - Government,1671637,17,Business Income,Medium,N,N,N,Y,N,23-05-2017,26-10-2019,,,,,,,,,,
184587558904,Kavita Iyer,Individual,Individual,08-07-1966,Anil Deshmukh,Indian,Indian,Resident,India,FDBPE9371U,960420352552,XXXX-XXXX-1303,AADHAAR-9915XXXX6149,8507716938,kavita.iyer412@yahoo.co.in,"14, Station Road, Bengaluru, Karnataka - 441468",Karnataka,Bengaluru,12.994493,77.546822,Salaried - Banking,278593,24,Investment Returns,Low,N,N,N,Y,Y,24-11-2017,05-06-2021,,,,,,,,,,
616029192622,Deepak Mishra,Individual,Individual,20-01-1978,Sanjay Reddy,Indian,Indian,Resident,India,ZPIPS5323D,989496642478,XXXX-XXXX-8348,AADHAAR-2300XXXX2181,6324331576,deepak.mishra445@gmail.com,"61, Station Road, Nizamabad, Telangana - 237148",Telangana,Nizamabad,18.412408,82.718478,Consultant,205052,12,Business Income,Low,N,N,N,N,N,22-10-2023,26-11-2023,,,,,,,,,,
898513889956,Anita Bose,Individual,Individual,22-10-1978,Sandeep Mehta,Indian,Indian,Resident,India,SUNPF6519D,702219863410,XXXX-XXXX-1620,AADHAAR-6619XXXX0931,6806720728,anita.bose325@yahoo.co.in,"429, Ring Road, Indore, Madhya Pradesh - 220149",Madhya Pradesh,Indore,18.572842,73.201357,Self-Employed - Professional,459683,2,Business Income,Low,N,N,N,Y,Y,06-11-2018,09-11-2018,,,,,,,,,,
593738563075,Vandana Rao,Individual,Individual,14-07-1968,Kiran Banerjee,Indian,Indian,Resident,India,ZFZPZ5145I,806407257884,XXXX-XXXX-0129,AADHAAR-6889XXXX0766,9727837958,vandana.rao118@outlook.com,"219, MG Road, Kota, Rajasthan - 495969",Rajasthan,Kota,18.569043,76.908794,Salaried - IT,3598897,36,Salary,High,N,N,N,N,N,09-03-2016,22-07-2023,,,,,,,,,,
107876834539,Mohit Sen,Individual,Individual,19-02-1994,Rohan Pillai,Indian,Indian,NRI,India,YGDPF8682H,730407088586,XXXX-XXXX-7471,AADHAAR-3131XXXX2082,7579304774,mohit.sen665@outlook.com,"294, Gandhi Nagar, Agra, Uttar Pradesh - 412311",Uttar Pradesh,Agra,22.015295,77.249337,Student,1501600,34,Salary,Medium,N,N,N,N,Y,27-06-2015,19-05-2023,,,,,,,,,,
263331095665,Vikram Mukherjee,Individual,Individual,18-06-1995,Mohit Chatterjee,Indian,Indian,Resident,India,HJKPR5651R,858860351345,XXXX-XXXX-9987,AADHAAR-9183XXXX2836,8749845635,vikram.mukherjee419@outlook.com,"440, Park Street, Varanasi, Uttar Pradesh - 214680",Uttar Pradesh,Varanasi,22.851514,80.038916,Retired,1139173,5,Pension,Medium,N,N,N,N,N,02-06-2024,09-12-2024,,,,,,,,,,
387948199757,Asha Chatterjee,Individual,Individual,15-04-1988,Sachin Verma,Indian,Indian,Resident,India,EETPT7987T,833165675719,XXXX-XXXX-5752,AADHAAR-9423XXXX3194,7658397699,asha.chatterjee652@outlook.com,"32, Ring Road, Salem, Tamil Nadu - 782641",Tamil Nadu,Salem,17.120627,80.418471,Salaried - Banking,858236,23,Rental Income,Medium,N,N,N,N,N,03-07-2021,27-10-2023,,,,,,,,,,
660674118633,Rekha Deshmukh,Individual,Individual,26-03-1993,Harsh Rao,Indian,Indian,Resident,India,XDIPI4045V,703287152530,XXXX-XXXX-2199,AADHAAR-2460XXXX2460,7612093184,rekha.deshmukh153@outlook.com,"425, Nehru Place, Gurugram, Haryana - 988831",Haryana,Gurugram,20.900138,74.787777,Salaried - Banking,106893,13,Rental Income,Low,N,N,N,Y,N,11-10-2022,03-03-2023,,,,,,,,,,
540217732693,Akash Malhotra,Individual,Individual,10-02-1993,Kiran Shah,Indian,Indian,Resident,India,VOXPS3874O,722539953567,XXXX-XXXX-2963,AADHAAR-4244XXXX6675,8167838548,akash.malhotra998@outlook.com,"206, Station Road, Rajkot, Gujarat - 637956",Gujarat,Rajkot,19.186305,74.397149,Retired,273831,22,Rental Income,Low,N,N,N,N,N,12-06-2022,21-03-2024,,,,,,,,,,
688689058483,Priya Kapoor,Individual,Individual,06-02-1963,Mohit Tiwari,Indian,Indian,Resident,India,ZQFPG4617U,444811965954,XXXX-XXXX-2008,AADHAAR-2950XXXX6496,8803814968,priya.kapoor688@yahoo.co.in,"345, Gandhi Nagar, Rourkela, Odisha - 624255",Odisha,Rourkela,17.059456,80.776592,Self-Employed - Retail,2060211,20,Agriculture Income,Medium,N,N,N,Y,Y,31-03-2022,14-01-2024,,,,,,,,,,
748303518767,Tanvi Nair,Individual,Individual,30-04-1987,Sachin Bhat,Indian,Indian,Resident,India,KIXPI4286N,681510020017,XXXX-XXXX-0445,AADHAAR-5018XXXX3674,6269665043,tanvi.nair688@gmail.com,"409, Station Road, Vadodara, Gujarat - 159480",Gujarat,Vadodara,16.038066,75.700535,Self-Employed - Professional,169130,24,Investment Returns,Low,N,N,N,Y,N,03-03-2016,31-12-2021,,,,,,,,,,
632755614431,Apex Group,Non-Individual,Partnership,,,Indian,,Resident,India,QWJJD9636I,,,,6075541533,apex105@yahoo.co.in,,Telangana,Nizamabad,15.759751,74.769201,Pharmaceuticals,85119959,,Government Grant,Medium,N,N,N,N,N,08-09-2022,04-02-2025,18-07-2006,"Nizamabad, Telangana",Senior Managing Official,N,"151 Corporate Park, Nizamabad, Telangana - 330869","Plot 83, Industrial Area, Nizamabad, Telangana","233, Residential Colony, Nizamabad, Telangana",U97454YD2007PTC965455,586473473670,Ravi Mehta
463715477942,Shweta Patel,Individual,Individual,23-06-1964,Kiran Joshi,Indian,Indian,Resident,India,GZFPH0476G,970552492906,XXXX-XXXX-0487,AADHAAR-9083XXXX3309,7972700338,shweta.patel86@rediffmail.com,"311, Nehru Place, Chandigarh, Punjab - 674825",Punjab,Chandigarh,30.687452,76.735882,Self-Employed - Retail,706625,15,Pension,Medium,N,N,N,N,N,21-10-2021,17-01-2023,,,,,,,,,,
479047824235,Amit Patel,Individual,Individual,03-04-2004,Sanjay Bose,Indian,Indian,Resident,India,MXAPJ6299K,380737990605,XXXX-XXXX-9170,AADHAAR-8414XXXX6110,7140091358,amit.patel801@hotmail.com,"354, Nehru Place, Rohini, Delhi - 807181",Delhi,Rohini,24.88462,74.725818,Salaried - IT,215891,21,Salary,Low,N,N,N,N,N,06-08-2023,07-07-2024,,,,,,,,,,
931663259789,Silver Capital,Non-Individual,Private Limited,,,Indian,,Resident,India,ZJLCK6058N,,,,8433474444,silver76@hotmail.com,,Telangana,Hyderabad,17.346807,78.48691,Healthcare,373101179,,Business Revenue,Medium,N,N,N,N,N,18-12-2007,28-04-2008,04-12-2003,"Hyderabad, Telangana",Control through other means,Y,"65 Corporate Park, Hyderabad, Telangana - 567152","Plot 173, Industrial Area, Hyderabad, Telangana","284, Residential Colony, Hyderabad, Telangana",U79716ZL2003PTC917723,919644465435,Pooja Deshmukh
390543499761,Anita Bhat,Individual,Individual,14-12-1998,Suresh Chatterjee,Indian,Indian,Resident,India,MNNPT6782X,686828241575,XXXX-XXXX-8976,AADHAAR-3405XXXX9366,6663636122,anita.bhat859@yahoo.co.in,"368, Station Road, Kolkata, West Bengal - 825667",West Bengal,Kolkata,22.539248,88.334758,Lawyer,1113277,0,Agriculture Income,Medium,N,N,N,N,N,20-10-2015,11-05-2020,,,,,,,,,,
258852777152,Pradeep Chauhan,Individual,Individual,09-12-1968,Gaurav Deshmukh,Indian,Indian,Resident,India,OTXPM1910Q,274928215337,XXXX-XXXX-0288,AADHAAR-8018XXXX0387,6661156079,pradeep.chauhan868@outlook.com,"305, Ring Road, Pune, Maharashtra - 741327",Maharashtra,Pune,18.526571,73.883358,Lawyer,62402890,7,Family Support,Medium,N,Y,N,N,N,24-01-2024,05-07-2024,,,,,,,,,,
501476044199,Ritu Mishra,Individual,Individual,05-11-1980,Mohit Chatterjee,Indian,Indian,NRI,India,DFSPK6847O,809867615267,XXXX-XXXX-8048,AADHAAR-9855XXXX9908,7877393977,ritu.mishra83@rediffmail.com,"303, NH Highway, Indore, Madhya Pradesh - 134764",Madhya Pradesh,Indore,24.963399,82.658654,Salaried - IT,19802729,21,Investment Returns,Low,N,Y,N,N,Y,05-11-2016,13-06-2017,,,,,,,,,,
776536080513,Mohit Kapoor,Individual,Individual,07-05-2001,Deepak Gupta,Indian,Indian,Resident,India,ZTRPN8736P,860883747121,XXXX-XXXX-1035,AADHAAR-5458XXXX4375,6589296113,mohit.kapoor334@hotmail.com,"279, Park Street, Coimbatore, Tamil Nadu - 593955",Tamil Nadu,Coimbatore,20.652361,82.06016,Self-Employed - Professional,422064,2,Agriculture Income,Low,N,N,N,N,Y,01-04-2018,19-08-2024,,,,,,,,,,
708826305095,Shri Technologies,Non-Individual,Society,,,Indian,,Resident,India,KINHG1493F,,,,8445805502,shri79@yahoo.co.in,,Telangana,Karimnagar,17.675184,80.815193,Healthcare,192997491,,Investment,Medium,N,N,N,Y,N,07-05-2012,23-06-2022,01-07-2003,"Karimnagar, Telangana",Shareholding > 25%,N,"191 Corporate Park, Karimnagar, Telangana - 720765","Plot 359, Industrial Area, Karimnagar, Telangana","924, Residential Colony, Karimnagar, Telangana",U26631MQ1997PTC917304,325133746333,Nisha Mehta
982445162875,Ravi Bose,Individual,Individual,24-03-1972,Pranav Sen,Indian,Indian,Resident,India,PYFPP4545J,379221270632,XXXX-XXXX-0886,AADHAAR-2798XXXX8559,7084801570,ravi.bose788@rediffmail.com,"79, Nehru Place, Ludhiana, Punjab - 666880",Punjab,Ludhiana,15.808309,74.332666,Self-Employed - Professional,474963,23,Pension,Low,N,N,N,N,N,06-05-2017,04-08-2024,,,,,,,,,,
697813577295,Deepak Bhat,Individual,Individual,07-10-1997,Manoj Reddy,Indian,Indian,Resident,Other,SXRPT1690Y,796113320720,XXXX-XXXX-4186,AADHAAR-7355XXXX7164,9541914936,deepak.bhat794@yahoo.co.in,"85, MG Road, Ahmedabad, Gujarat - 757288",Gujarat,Ahmedabad,23.020938,72.54416,Agriculture,128382,8,Business Income,Low,N,N,N,N,Y,23-02-2020,15-07-2023,,,,,,,,,,
100189407751,Bhavna Bhat,Individual,Individual,28-06-1975,Pradeep Banerjee,Indian,Indian,Resident,India,QHJPO6768Y,952000081362,XXXX-XXXX-4289,AADHAAR-3733XXXX3448,7344703226,bhavna.bhat106@outlook.com,"3, Nehru Place, Rourkela, Odisha - 394378",Odisha,Rourkela,23.163683,74.83897,Self-Employed - Retail,736601,36,Salary,High,N,N,N,N,N,04-09-2015,20-11-2021,,,,,,,,,,
317172567587,Arjun Tiwari,Individual,Individual,17-08-1973,Varun Shah,Indian,Indian,Resident,India,VFZPK8292H,780891555402,XXXX-XXXX-0255,AADHAAR-8417XXXX0405,7527706973,arjun.tiwari970@outlook.com,"194, NH Highway, Thiruvananthapuram, Kerala - 854060",Kerala,Thiruvananthapuram,22.41812,74.569522,Salaried - Banking,1644112,24,Rental Income,Medium,N,N,N,N,Y,04-09-2020,26-08-2023,,,,,,,,,,
432073665605,Sandeep Sharma,Individual,Individual,18-05-1966,Pradeep Gupta,Indian,Indian,Resident,India,RQXPR8292D,368835931991,XXXX-XXXX-0958,AADHAAR-3499XXXX1215,6149828465,sandeep.sharma253@yahoo.co.in,"162, Nehru Place, Kozhikode, Kerala - 730254",Kerala,Kozhikode,24.686763,77.629646,Business Owner,432644,31,Investment Returns,Low,N,N,N,N,N,28-01-2019,26-03-2021,,,,,,,,,,
