customer_cif,customer_name,customer_type,customer_entity_type,date_of_birth,father_spouse_name,nationality,citizenship,residency,tax_residency,pan,aadhaar,aadhaar_masked,identification_doc_no,mobile_number,email_id,address_individual,state,city,address_lat,address_lon,occupation_industry,annual_income,professional_experience_years,source_of_funds,customer_risk_score,pep_flag,hni_flag,minor_flag,non_face_to_face_flag,vkyc_flag,cif_creation_date,kyc_update_date,date_of_incorporation,place_of_incorporation,beneficial_owner_types,passive_nfe,address_registered_office,address_place_of_business,address_beneficial_owners,entity_identification_doc_no,cif_beneficial_owners,name_beneficial_owners
304131642725,Diamond Imports,Non-Individual,Sole Proprietorship,,,Indian,,Resident,India,SCFLF7757G,,,,8591423194,diamond919@outlook.com,,Rajasthan,Jodhpur,16.05009,82.52578,Real Estate,123575823,,Donations,Low,N,N,N,N,N,08-03-2003,11-11-2022,07-12-1997,"Jodhpur, Rajasthan",Control through other means,N,"81 Corporate Park, Jodhpur, Rajasthan - 660871","Plot 13, Industrial Area, Jodhpur, Rajasthan","669, Residential Colony, Jodhpur, Rajasthan",U14045FR1996PTC391409,595081191421,Rajesh Pandey
138351753697,Sonal Banerjee,Individual,Individual,23-10-1961,Ankit Pandey,Indian,Indian,Resident,India,LQXPB4711V,968649535143,XXXX-XXXX-0053,AADHAAR-8499XXXX2956,9050665334,sonal.banerjee233@gmail.com,"362, Nehru Place, Indore, Madhya Pradesh - 391609",Madhya Pradesh,Indore,23.217462,75.47874,Self-Employed - Retail,491023,29,Rental Income,Low,N,N,N,Y,N,16-04-2018,08-07-2019,,,,,,,,,,
979237919461,Global Group,Non-Individual,Society,,,Indian,,Resident,India,QRPGH5361U,,,,8729364136,global884@gmail.com,,Odisha,Puri,18.765866,74.444033,Construction,141778899,,Donations,Medium,N,N,N,N,N,10-04-2022,14-04-2024,11-11-2019,"Puri, Odisha",Control through other means,N,"15 Corporate Park, Puri, Odisha - 530737","Plot 26, Industrial Area, Puri, Odisha","789, Residential Colony, Puri, Odisha",U67415SJ2002PTC810503,758462661134,Aditya Tiwari
925170371472,Manoj Malhotra,Individual,Individual,16-11-1963,Tushar Agarwal,Indian,Indian,Resident,India,MIXPK3490K,446455639145,XXXX-XXXX-2597,AADHAAR-8895XXXX7328,7894124826,manoj.malhotra172@outlook.com,"62, Ring Road, Bhopal, Madhya Pradesh - 435759",Madhya Pradesh,Bhopal,23.212756,77.431218,Salaried - IT,429988,18,Family Support,Low,N,N,N,N,Y,14-01-2019,09-08-2020,,,,,,,,,,
324225003175,Royal Technologies,Non-Individual,Partnership,,,Indian,,Resident,India,NSKJQ8018Z,,,,9564253145,royal568@hotmail.com,,Haryana,Gurugram,22.645099,75.188571,Construction,33480269,,Government Grant,Low,N,N,N,N,N,18-07-1999,06-02-2022,01-06-1990,"Gurugram, Haryana",Shareholding > 25%,Y,"153 Corporate Park, Gurugram, Haryana - 554475","Plot 174, Industrial Area, Gurugram, Haryana","18, Residential Colony, Gurugram, Haryana",U94996SQ2024PTC865748,995519999166,Ritu Pillai
744690562756,Divya Das,Individual,Individual,04-02-1979,Pradeep Malhotra,Indian,Indian,Resident,India,VPYPU4401Q,893602786402,XXXX-XXXX-1011,AADHAAR-3232XXXX0326,9206406004,divya.das964@yahoo.co.in,"278, Gandhi Nagar, Ahmedabad, Gujarat - 492567",Gujarat,Ahmedabad,23.002569,72.523655,Freelancer,499277,7,Investment Returns,Low,N,N,N,N,N,10-09-2021,26-04-2024,,,,,,,,,,
439960859238,Rashmi Pandey,Individual,Individual,25-02-1966,Pradeep Nair,Indian,Indian,Resident,India,EFUPZ0883V,474133504680,XXXX-XXXX-2429,AADHAAR-8155XXXX7338,6266897313,rashmi.pandey220@hotmail.com,"136, Gandhi Nagar, Jabalpur, Madhya Pradesh - 799615",Madhya Pradesh,Jabalpur,23.22842,74.025536,Doctor,1419678,35,Business Income,Medium,N,N,N,N,N,15-11-2017,03-02-2024,,,,,,,,,,
732178290002,Naveen Reddy,Individual,Individual,15-02-2005,Sanjay Sharma,Indian,Indian,Resident,India,FFAPY4264D,394449969547,XXXX-XXXX-1662,AADHAAR-7658XXXX7453,9599030042,naveen.reddy670@yahoo.co.in,"226, Nehru Place, Mangaluru, Karnataka - 733186",Karnataka,Mangaluru,20.972937,75.638533,Freelancer,798235,39,Pension,High,N,N,N,Y,Y,15-12-2015,16-04-2020,,,,,,,,,,
122667325400,Shruti Bhat,Individual,Individual,19-05-2004,Ashish Verma,Indian,Indian,Resident,India,NSUPD5003P,330886097824,XXXX-XXXX-4708,AADHAAR-9065XXXX8429,9190508925,shruti.bhat972@yahoo.co.in,"239, Ring Road, Kota, Rajasthan - 721502",Rajasthan,Kota,21.719481,75.694127,Business Owner,1275742,35,Rental Income,Medium,N,N,N,Y,N,28-12-2023,12-02-2024,,,,,,,,,,
592852787535,Komal Mukherjee,Individual,Individual,01-05-1997,Rajesh Joshi,Indian,Indian,Resident,India,ZLEPF6825H,386891035143,XXXX-XXXX-8594,AADHAAR-4998XXXX8621,8152540267,komal.mukherjee271@rediffmail.com,"142, Gandhi Nagar, Kolkata, West Bengal - 854665",West Bengal,Kolkata,22.618892,88.32905,Salaried - IT,2079800,38,Business Income,Medium,N,N,N,N,Y,27-05-2015,04-01-2018,,,,,,,,,,
186883955729,Lata Gupta,Individual,Individual,29-11-2006,Anil Pandey,Indian,Indian,Resident,India,ABAPJ1154B,346109808595,XXXX-XXXX-6711,AADHAAR-3019XXXX6612,7459288427,lata.gupta604@rediffmail.com,"403, NH Highway, Durgapur, West Bengal - 558407",West Bengal,Durgapur,20.683834,80.774875,Freelancer,1687508,32,Rental Income,Medium,N,N,N,N,N,13-04-2020,21-11-2024,,,,,,,,,,
142955110710,Sapna Shah,Individual,Individual,03-10-1972,Pranav Nair,Indian,Indian,Resident,India,YAHPY4648G,643218656349,XXXX-XXXX-9380,AADHAAR-8994XXXX3105,6517615932,sapna.shah928@rediffmail.com,"230, Station Road, Siliguri, West Bengal - 761900",West Bengal,Siliguri,20.42387,76.178193,Student,2442724,36,Family Support,High,Y,N,N,N,Y,10-10-2019,01-07-2022,,,,,,,,,,
297413627153,Deepak Verma,Individual,Individual,17-02-1966,Sanjay Mukherjee,Indian,Indian,Resident,India,MHRPF7000P,210449409896,XXXX-XXXX-4313,AADHAAR-2950XXXX3036,7638031800,deepak.verma350@rediffmail.com,"344, Ring Road, Vadodara, Gujarat - 922807",Gujarat,Vadodara,21.847852,74.199988,Business Owner,435525,9,Business Income,Low,N,N,N,N,N,16-05-2018,10-03-2023,,,,,,,,,,
491718912167,Nisha Singh,Individual,Individual,20-10-1981,Naveen Pandey,Indian,Indian,Resident,India,KTYPG0278D,807537982686,XXXX-XXXX-1548,AADHAAR-7457XXXX5135,7856645816,nisha.singh627@gmail.com,"426, Nehru Place, Jalandhar, Punjab - 256363",Punjab,Jalandhar,23.610746,74.835228,Self-Employed - Retail,377851,22,Family Support,Low,N,N,N,N,N,05-10-2020,23-10-2024,,,,,,,,,,
321487220668,Harsh Sharma,Individual,Individual,28-08-1996,Kiran Patel,Indian,Indian,Resident,India,JZUPT1872Y,912449909003,XXXX-XXXX-9280,AADHAAR-2004XXXX0529,6043885566,harsh.sharma433@rediffmail.com,"267, MG Road, Vadodara, Gujarat - 540934",Gujarat,Vadodara,16.733654,77.818865,Salaried - Banking,2100153,2,Investment Returns,High,N,N,N,N,N,19-03-2016,11-10-2016,,,,,,,,,,
785825098630,Royal Holdings,Non-Individual,Sole Proprietorship,,,Indian,,Resident,India,YJPLY7455V,,,,6454643434,royal805@hotmail.com,,Delhi,New Delhi,28.613999,77.220357,Import/Export,415010407,,Business Revenue,High,N,N,N,N,N,21-02-2023,15-08-2023,04-07-2021,"New Delhi, Delhi",Control through other means,N,"159 Corporate Park, New Delhi, Delhi - 305013","Plot 351, Industrial Area, New Delhi, Delhi","616, Residential Colony, New Delhi, Delhi",U56253DG2019PTC444013,822162492615,Shweta Chatterjee
112294005802,Shruti Mehta,Individual,Individual,07-05-1971,Amit Gupta,Indian,Indian,Resident,India,HVMPU2930C,520043761678,XXXX-XXXX-0160,AADHAAR-3426XXXX6189,9985718951,shruti.mehta712@rediffmail.com,"19, NH Highway, Siliguri, West Bengal - 483237",West Bengal,Siliguri,23.651913,76.676732,Self-Employed - Professional,134700,1,Rental Income,Low,N,N,N,N,Y,03-12-2022,24-06-2024,,,,,,,,,,
710016534190,Pioneer Enterprises,Non-Individual,Society,,,Indian,,Resident,India,TYIGI3659I,,,,8504669537,pioneer192@yahoo.co.in,,Karnataka,Mysuru,15.658787,80.660919,Retail,249444376,,Donations,Low,N,N,N,N,N,22-09-2013,10-08-2017,19-01-2013,"Mysuru, Karnataka",Control through other means,N,"70 Corporate Park, Mysuru, Karnataka - 751353","Plot 68, Industrial Area, Mysuru, Karnataka","218, Residential Colony, Mysuru, Karnataka",U19854ZE2011PTC356948,359231867430,Rekha Reddy
489666783704,Vikram Rao,Individual,Individual,14-09-2005,Pradeep Sharma,Indian,Indian,Resident,India,YOJPR5424C,595430985675,XXXX-XXXX-8922,AADHAAR-5363XXXX1010,8975236038,vikram.rao300@outlook.com,"137, Gandhi Nagar, Nagpur, Maharashtra - 474934",Maharashtra,Nagpur,22.536575,81.955463,Business Owner,783123,16,Family Support,Medium,N,N,N,Y,N,08-05-2022,27-10-2022,,,,,,,,,,
435265379298,Geeta Bose,Individual,Individual,20-06-1975,Amit Iyer,Indian,Indian,Resident,India,UKBPH2314N,371079830615,XXXX-XXXX-3126,AADHAAR-7873XXXX0353,7022540969,geeta.bose873@hotmail.com,"465, NH Highway, Ahmedabad, Gujarat - 541841",Gujarat,Ahmedabad,22.979137,72.548059,Salaried - Government,1993887,27,Pension,Medium,N,N,N,Y,N,29-02-2024,30-12-2024,,,,,,,,,,
476397710229,Pranav Yadav,Individual,Individual,19-01-1997,Gaurav Yadav,Indian,Indian,Resident,India,NIQPD4286H,335110279048,XXXX-XXXX-1959,AADHAAR-9239XXXX4840,6536790801,pranav.yadav820@yahoo.co.in,"144, Nehru Place, Kozhikode, Kerala - 527964",Kerala,Kozhikode,18.9479,74.939651,Salaried - Banking,238238,23,Pension,Low,N,N,N,Y,Y,22-08-2017,29-04-2018,,,,,,,,,,
505525268760,Aditya Malhotra,Individual,Individual,03-08-1990,Vikram Yadav,Indian,Indian,Resident,India,HJOPB4698B,824092156738,XXXX-XXXX-3085,AADHAAR-9165XXXX4844,8008239722,aditya.malhotra580@hotmail.com,"250, Gandhi Nagar, Durgapur, West Bengal - 717581",West Bengal,Durgapur,22.188507,80.150656,Retired,1909542,23,Salary,Medium,N,N,N,Y,N,30-01-2017,10-01-2019,,,,,,,,,,
235849676813,Ashish Patel,Individual,Individual,23-09-1982,Aditya Reddy,Indian,Indian,Resident,India,DENPO6783G,903094867538,XXXX-XXXX-5158,AADHAAR-2729XXXX2170,9665209630,ashish.patel42@gmail.com,"373, MG Road, Coimbatore, Tamil Nadu - 275643",Tamil Nadu,Coimbatore,24.220492,73.21329,Agriculture,1761629,20,Business Income,Medium,N,N,N,N,N,04-09-2019,16-02-2024,,,,,,,,,,
996029316249,Komal Pillai,Individual,Individual,31-08-1961,Suresh Verma,Indian,Indian,Resident,India,WEDPL9697G,725265859085,XXXX-XXXX-9856,AADHAAR-6410XXXX2861,8611627511,komal.pillai652@rediffmail.com,"96, Ring Road, Amritsar, Punjab - 790887",Punjab,Amritsar,19.74635,79.812875,Freelancer,150381,30,Salary,Low,N,N,N,Y,Y,05-02-2017,23-09-2017,,,,,,,,,,
926465338272,Divya Sen,Individual,Individual,06-04-2006,Gaurav Shah,Indian,Indian,Resident,India,HEAPU1494Y,744969193672,XXXX-XXXX-2252,AADHAAR-3377XXXX5732,9534265129,divya.sen995@yahoo.co.in,"345, MG Road, Bhubaneswar, Odisha - 234614",Odisha,Bhubaneswar,20.279781,85.870372,Freelancer,298778,19,Investment Returns,Low,N,N,N,Y,N,26-04-2019,05-03-2023,,,,,,,,,,
913854106441,Manoj Reddy,Individual,Individual,04-12-1979,Tushar Joshi,Indian,Indian,Resident,India,GOIPJ6256F,562679564230,XXXX-XXXX-6990,AADHAAR-7938XXXX7115,6823399927,manoj.reddy800@hotmail.com,"94, Station Road, Howrah, West Bengal - 797674",West Bengal,Howrah,17.281184,79.728413,Freelancer,319009,19,Family Support,Low,N,N,N,N,N,16-09-2023,29-10-2024,,,,,,,,,,
916609186515,Mohit Pillai,Individual,Individual,10-07-1967,Rajesh Pillai,Indian,Indian,Resident,Other,KPSPC0152H,948881695084,XXXX-XXXX-3169,AADHAAR-8054XXXX7789,9566214064,mohit.pillai141@hotmail.com,"317, Station Road, Mumbai, Maharashtra - 482105",Maharashtra,Mumbai,19.029662,72.916122,Self-Employed - Professional,78998990,30,Rental Income,Low,N,Y,N,N,Y,13-12-2018,20-12-2021,,,,,,,,,,
519743012805,Kiran Rao,Individual,Individual,31-08-1971,Sandeep Sharma,Indian,Indian,Resident,India,WBYPS0695Z,883723000585,XXXX-XXXX-9196,AADHAAR-9209XXXX3708,7698218165,kiran.rao330@gmail.com,"139, Station Road, Gurugram, Haryana - 291959",Haryana,Gurugram,18.01104,80.729104,Agriculture,240714,9,Rental Income,Low,N,N,N,Y,N,28-01-2015,17-07-2024,,,,,,,,,,
772537742303,Naveen Reddy,Individual,Individual,28-01-1974,Tushar Deshmukh,Indian,Indian,Resident,India,FYIPT3913X,738664039745,XXXX-XXXX-4850,AADHAAR-2473XXXX4287,9696283833,naveen.reddy374@hotmail.com,"241, Ring Road, Varanasi, Uttar Pradesh - 464903",Uttar Pradesh,Varanasi,18.691615,80.839326,Doctor,189177,30,Agriculture Income,Low,N,N,N,N,N,14-12-2023,17-04-2024,,,,,,,,,,
522951366243,Sachin Pandey,Individual,Individual,24-02-2003,Akash Pillai,Indian,Indian,Resident,India,SKQPS5831A,315845818860,XXXX-XXXX-8095,AADHAAR-7212XXXX7490,6382432892,sachin.pandey200@gmail.com,"48, Station Road, Karnal, Haryana - 504581",Haryana,Karnal,25.107387,79.237984,Doctor,660694,20,Investment Returns,Medium,N,N,N,Y,N,11-01-2017,06-09-2018,,,,,,,,,,
693005768801,Mohit Verma,Individual,Individual,20-10-1973,Kiran Tiwari,Indian,Indian,Resident,India,OGNPF1662A,971178407751,XXXX-XXXX-6240,AADHAAR-9145XXXX7763,8063406950,mohit.verma988@outlook.com,"175, MG Road, Thiruvananthapuram, Kerala - 815751",Kerala,Thiruvananthapuram,21.36301,81.4119,Consultant,656475,37,Rental Income,High,Y,N,N,N,N,30-01-2019,31-12-2024,,,,,,,,,,
601927415203,Akash Bhat,Individual,Individual,13-08-1981,Vivek Kapoor,Indian,Indian,Resident,India,GPKPU1740S,275233748371,XXXX-XXXX-8128,AADHAAR-4059XXXX3431,7566235112,akash.bhat585@hotmail.com,"430, Ring Road, Jalandhar, Punjab - 416314",Punjab,Jalandhar,20.843678,82.129486,Consultant,1389172,28,Business Income,Medium,N,N,N,N,N,18-05-2020,18-12-2020,,,,,,,,,,
376677488552,Anjali Pillai,Individual,Individual,02-01-1980,Pradeep Kumar,Indian,Indian,Resident,India,QMCPD8690R,208926566740,XXXX-XXXX-2235,AADHAAR-4334XXXX2891,7505466290,anjali.pillai46@outlook.com,"69, MG Road, Durgapur, West Bengal - 604442",West Bengal,Durgapur,16.35729,78.37025,Freelancer,739297,16,Pension,Medium,N,N,N,N,N,17-05-2023,30-12-2023,,,,,,,,,,
509966460948,Bhavna Bhat,Individual,Individual,31-12-1996,Yash Mishra,Indian,Indian,Resident,India,AGUPT2368S,449188427675,XXXX-XXXX-0817,AADHAAR-7447XXXX9045,9743907935,bhavna.bhat529@gmail.com,"427, MG Road, Thiruvananthapuram, Kerala - 745860",Kerala,Thiruvananthapuram,17.505063,78.964618,Student,8571928,16,Pension,High,N,N,N,N,N,03-10-2019,24-01-2020,,,,,,,,,,
930534010492,Vivek Verma,Individual,Individual,20-03-1995,Deepak Patel,Indian,Indian,Resident,India,RYMPP2223H,790020954202,XXXX-XXXX-8529,AADHAAR-8285XXXX6144,6200327174,vivek.verma789@rediffmail.com,"179, Ring Road, Salem, Tamil Nadu - 390413",Tamil Nadu,Salem,16.611849,73.936238,Consultant,190027,4,Investment Returns,Low,N,N,N,Y,N,07-06-2017,08-02-2019,,,,,,,,,,
705142344177,Anjali Das,Individual,Individual,26-02-1967,Ravi Yadav,Indian,Indian,Resident,India,CPIPU5855C,469032090804,XXXX-XXXX-1344,AADHAAR-3195XXXX6950,8989815334,anjali.das203@hotmail.com,"464, MG Road, Durgapur, West Bengal - 725146",West Bengal,Durgapur,17.501259,75.467954,Salaried - IT,403881,6,Family Support,Low,N,N,N,N,N,24-11-2017,02-09-2018,,,,,,,,,,
882295537316,Anjali Kapoor,Individual,Individual,02-08-1965,Arjun Nair,Indian,Indian,Resident,India,YKVPK3202Y,311445923211,XXXX-XXXX-6860,AADHAAR-7179XXXX1469,6528009419,anjali.kapoor850@outlook.com,"63, MG Road, Hyderabad, Telangana - 583388",Telangana,Hyderabad,17.41955,78.478306,Salaried - IT,656931,10,Family Support,Medium,N,N,N,N,N,17-11-2019,04-08-2023,,,,,,,,,,
157414983384,Sonal Kapoor,Individual,Individual,14-08-1989,Varun Kapoor,Indian,Indian,Resident,India,DXCPM2200E,541784592910,XXXX-XXXX-7729,AADHAAR-4940XXXX5820,9293990582,sonal.kapoor844@yahoo.co.in,"285, Station Road, Gurugram, Haryana - 985510",Haryana,Gurugram,24.328671,80.586322,Consultant,298141,14,Business Income,Low,N,N,N,N,Y,29-05-2022,29-05-2024,,,,,,,,,,
285031187337,United Services,Non-Individual,Partnership,,,Indian,,Resident,India,RBZLI5645Q,,,,7347916362,united756@outlook.com,,Rajasthan,Kota,21.409597,77.59971,Pharmaceuticals,360673287,,Government Grant,Medium,N,N,N,N,N,18-09-2019,18-01-2024,25-11-2018,"Kota, Rajasthan",Senior Managing Official,N,"136 Corporate Park, Kota, Rajasthan - 103216","Plot 91, Industrial Area, Kota, Rajasthan","593, Residential Colony, Kota, Rajasthan",U80121IX2018PTC654830,799716124074,Tanvi Nair
430943281898,Sandeep Yadav,Individual,Individual,01-12-1986,Pradeep Bose,Indian,Indian,Resident,India,FWIPG9966J,729190539390,XXXX-XXXX-1160,AADHAAR-8712XXXX8698,8796101185,sandeep.yadav137@gmail.com,"363, NH Highway, Karnal, Haryana - 191115",Haryana,Karnal,17.564353,82.558969,Student,1203116,21,Salary,High,N,N,N,N,N,28-01-2022,16-11-2023,,,,,,,,,,
338626776834,Shruti Das,Individual,Individual,14-03-1997,Pradeep Tiwari,Indian,Indian,Resident,India,APKPH0084L,266604010840,XXXX-XXXX-1182,AADHAAR-4455XXXX9270,9190986194,shruti.das78@hotmail.com,"14, Ring Road, Madurai, Tamil Nadu - 938260",Tamil Nadu,Madurai,16.007875,74.979676,Retired,303980,1,Family Support,Low,N,N,N,N,N,09-11-2020,18-02-2023,,,,,,,,,,
881669980045,Excel Logistics,Non-Individual,Private Limited,,,Indian,,Resident,India,TSZJG6703U,,,,7628821811,excel876@yahoo.co.in,,Haryana,Karnal,23.028658,78.119741,Import/Export,399038894,,Donations,Medium,N,N,N,N,N,07-04-2014,10-06-2022,07-06-2012,"Karnal, Haryana",Senior Managing Official,N,"191 Corporate Park, Karnal, Haryana - 681850","Plot 113, Industrial Area, Karnal, Haryana","254, Residential Colony, Karnal, Haryana",U44106CO1993PTC991376,915213063368,Priya Pillai
619918218971,Excel Imports,Non-Individual,HUF,,,Indian,,Resident,India,KMPLR2957O,,,,8743913213,excel383@hotmail.com,,Rajasthan,Udaipur,24.267737,77.425845,Textiles,55698130,,Investment,Medium,N,N,N,Y,N,27-11-2007,04-01-2015,06-09-2007,"Udaipur, Rajasthan",Control through other means,N,"149 Corporate Park, Udaipur, Rajasthan - 432002","Plot 323, Industrial Area, Udaipur, Rajasthan","888, Residential Colony, Udaipur, Rajasthan",U92921HY2008PTC230005,731435128153,Deepak Banerjee
927933585044,Ashish Gupta,Individual,Individual,05-05-1969,Arjun Reddy,Indian,Indian,Resident,India,LFOPA3287D,438544237022,XXXX-XXXX-4972,AADHAAR-6813XXXX7131,7066443834,ashish.gupta748@hotmail.com,"222, Ring Road, Thrissur, Kerala - 923390",Kerala,Thrissur,17.452431,79.376266,Student,456055,9,Investment Returns,Low,N,N,N,Y,Y,23-07-2020,26-01-2023,,,,,,,,,,
192510825019,Pooja Nair,Individual,Individual,04-05-1994,Pradeep Reddy,Indian,Indian,Resident,India,VGKPJ1762N,453068795914,XXXX-XXXX-6490,AADHAAR-4482XXXX1943,8725450460,pooja.nair216@hotmail.com,"364, MG Road, Bhubaneswar, Odisha - 560611",Odisha,Bhubaneswar,20.343809,85.841629,Lawyer,2264514,19,Salary,Medium,N,N,N,N,N,04-11-2021,07-02-2023,,,,,,,,,,
476414873098,Silver Logistics,Non-Individual,Trust,,,Indian,,Resident,India,CZZCH8538B,,,,8179719387,silver489@rediffmail.com,,Delhi,New Delhi,28.581348,77.241719,Healthcare,258431051,,Government Grant,High,N,N,N,N,N,08-09-2004,09-04-2019,02-06-2001,"New Delhi, Delhi",Senior Managing Official,Y,"174 Corporate Park, New Delhi, Delhi - 587775","Plot 302, Industrial Area, New Delhi, Delhi","265, Residential Colony, New Delhi, Delhi",U23009BO2005PTC984603,770181357928,Aditya Banerjee
500569244816,Divya Joshi,Individual,Individual,31-08-2002,Sachin Verma,Indian,Indian,NRI,India,YDOPW0320C,433184181917,XXXX-XXXX-5838,AADHAAR-2086XXXX9997,8848885460,divya.joshi448@rediffmail.com,"125, MG Road, Surat, Gujarat - 809903",Gujarat,Surat,20.889105,74.339008,Student,156026,39,Family Support,Low,N,N,N,N,Y,02-02-2018,17-11-2019,,,,,,,,,,
327952897752,Suresh Joshi,Individual,Individual,20-04-1991,Aditya Mukherjee,Indian,Indian,Resident,India,ZCFPV4506J,770631107337,XXXX-XXXX-3794,AADHAAR-8417XXXX2658,7793928865,suresh.joshi144@rediffmail.com,"218, MG Road, Salem, Tamil Nadu - 152247",Tamil Nadu,Salem,23.511729,80.556323,Student,1914662,18,Business Income,Medium,N,N,N,Y,N,13-10-2016,20-12-2020,,,,,,,,,,
624505803717,Rohan Tiwari,Individual,Individual,04-08-1980,Nikhil Pandey,Indian,Indian,Resident,India,GIXPD8072F,675819062836,XXXX-XXXX-3479,AADHAAR-3656XXXX6658,9868063327,rohan.tiwari608@yahoo.co.in,"19, Gandhi Nagar, Indore, Madhya Pradesh - 282976",Madhya Pradesh,Indore,22.586759,82.714236,Self-Employed - Retail,1601447,30,Rental Income,Medium,N,N,N,N,N,03-02-2024,05-03-2024,,,,,,,,,,
267973956769,Tushar Iyer,Individual,Individual,10-11-1998,Arjun Rao,Indian,Indian,Resident,India,DBQPU0301V,818751152111,XXXX-XXXX-5164,AADHAAR-2868XXXX9472,6036209118,tushar.iyer307@hotmail.com,"496, Station Road, New Delhi, Delhi - 332421",Delhi,New Delhi,28.583184,77.251329,Salaried - Government,233628,28,Business Income,Low,N,N,N,Y,N,25-10-2017,13-11-2019,,,,,,,,,,
745250319100,Sunita Das,Individual,Individual,14-07-1979,Ashish Joshi,Indian,Indian,Resident,India,MBJPP6070U,673110681500,XXXX-XXXX-1035,AADHAAR-4772XXXX4916,6382421878,sunita.das474@outlook.com,"332, Park Street, Bhubaneswar, Odisha - 445422",Odisha,Bhubaneswar,20.268478,85.873895,Self-Employed - Retail,87418761,26,Agriculture Income,Low,N,Y,N,N,N,29-09-2015,05-02-2020,,,,,,,,,,
337946715853,Anil Sen,Individual,Individual,05-04-1967,Ravi Sen,Indian,Indian,Resident,India,EGVPR4989N,857942547967,XXXX-XXXX-6696,AADHAAR-4502XXXX5468,7230102000,anil.sen247@rediffmail.com,"268, Ring Road, Bhopal, Madhya Pradesh - 567790",Madhya Pradesh,Bhopal,23.220042,77.454486,Salaried - Banking,386939,3,Investment Returns,Low,N,N,N,N,N,26-02-2017,27-07-2017,,,,,,,,,,
256627356121,Komal Chatterjee,Individual,Individual,11-06-1984,Akash Agarwal,Indian,Indian,NRI,India,VYZPJ6181P,694071935597,XXXX-XXXX-2031,AADHAAR-3853XXXX4020,6736139399,komal.chatterjee912@gmail.com,"75, Gandhi Nagar, Coimbatore, Tamil Nadu - 596249",Tamil Nadu,Coimbatore,17.626247,80.216259,Salaried - Banking,2013384,33,Rental Income,Medium,N,N,N,N,N,15-02-2023,13-02-2025,,,,,,,,,,
951087537973,Nikhil Joshi,Individual,Individual,09-05-2002,Mohit Pillai,Indian,Indian,Resident,India,AXUPM4306W,618300530467,XXXX-XXXX-9451,AADHAAR-7983XXXX5181,8177227110,nikhil.joshi67@yahoo.co.in,"284, Nehru Place, Rohini, Delhi - 775746",Delhi,Rohini,23.605053,74.380878,Self-Employed - Professional,121730,21,Salary,Low,N,N,N,N,N,09-01-2016,24-05-2024,,,,,,,,,,
877050425845,Premier Group,Non-Individual,Sole Proprietorship,,,Indian,,Resident,India,ROEHV8421Z,,,,6927118598,premier471@outlook.com,,Uttar Pradesh,Noida,16.934835,79.112345,Education,422816187,,Government Grant,Low,N,N,N,N,N,30-07-2008,25-05-2022,24-10-1998,"Noida, Uttar Pradesh",Shareholding > 25%,N,"180 Corporate Park, Noida, Uttar Pradesh - 967109","Plot 329, Industrial Area, Noida, Uttar Pradesh","508, Residential Colony, Noida, Uttar Pradesh",U37432SK2005PTC345907,566576951610,Ashish Iyer
802151464705,Bharat Holdings,Non-Individual,Society,,,Indian,,Resident,India,WZJHN0996C,,,,8639038564,bharat552@outlook.com,,Maharashtra,Nagpur,24.071248,75.158289,Pharmaceuticals,241169484,,Trading Profits,Low,N,N,N,N,N,09-05-2024,14-10-2024,20-06-2016,"Nagpur, Maharashtra",Shareholding > 25%,N,"196 Corporate Park, Nagpur, Maharashtra - 279245","Plot 397, Industrial Area, Nagpur, Maharashtra","118, Residential Colony, Nagpur, Maharashtra",U62225NY1990PTC304002,444348639374,Pallavi Reddy
959544102587,Akash Pandey,Individual,Individual,14-12-1966,Pranav Reddy,Indian,Indian,Resident,India,YXZPR3711E,441118902454,XXXX-XXXX-1428,AADHAAR-6050XXXX0894,7502232917,akash.pandey327@yahoo.co.in,"407, MG Road, Kozhikode, Kerala - 275817",Kerala,Kozhikode,24.340728,77.341401,Self-Employed - Retail,251153,5,Family Support,Low,N,N,N,N,Y,02-01-2015,27-04-2022,,,,,,,,,,
113922552566,Ritu Tiwari,Individual,Individual,19-05-1978,Rohan Kumar,Indian,Indian,Resident,India,ETTPO8480B,564908433471,XXXX-XXXX-4011,AADHAAR-7778XXXX5559,6731862129,ritu.tiwari130@hotmail.com,"424, Ring Road, Bhagalpur, Bihar - 196255",Bihar,Bhagalpur,21.315734,75.457069,Business Owner,129014,29,Business Income,Low,N,N,N,N,N,26-09-2018,14-10-2018,,,,,,,,,,
459499281463,Pradeep Rao,Individual,Individual,26-09-1975,Naveen Iyer,Indian,Indian,Resident,India,GLEPY3773I,525187444952,XXXX-XXXX-1917,AADHAAR-6690XXXX8437,8593900987,pradeep.rao11@outlook.com,"468, Park Street, Howrah, West Bengal - 174398",West Bengal,Howrah,16.579495,79.507805,Freelancer,1665064,3,Pension,Medium,N,N,N,Y,Y,27-09-2018,19-01-2023,,,,,,,,,,
610430855819,Komal Bose,Individual,Individual,26-11-2004,Mohit Agarwal,Indian,Indian,Resident,India,SCPPM9384N,353675228967,XXXX-XXXX-6017,AADHAAR-5565XXXX8594,7097307515,komal.bose638@gmail.com,"389, Ring Road, Kochi, Kerala - 223374",Kerala,Kochi,9.937302,76.278486,Consultant,417784,16,Family Support,Low,N,N,N,N,N,31-08-2023,04-01-2024,,,,,,,,,,
600351352358,Gaurav Rao,Individual,Individual,30-12-1999,Sandeep Mukherjee,Indian,Indian,Resident,India,IRXPW5154L,705627612196,XXXX-XXXX-1775,AADHAAR-7644XXXX4597,8780492833,gaurav.rao475@rediffmail.com,"64, MG Road, Vadodara, Gujarat - 796244",Gujarat,Vadodara,20.956097,73.861647,Salaried - IT,505301,7,Salary,Medium,N,N,N,N,N,17-04-2021,16-09-2024,,,,,,,,,,
536472499927,Tushar Nair,Individual,Individual,11-07-1983,Sanjay Yadav,Indian,Indian,Resident,India,HKTPP8263W,566473643770,XXXX-XXXX-0307,AADHAAR-5240XXXX8392,7082062680,tushar.nair186@gmail.com,"323, Ring Road, Agra, Uttar Pradesh - 308893",Uttar Pradesh,Agra,22.329993,78.859664,Salaried - Banking,393743,14,Rental Income,Low,N,N,N,N,N,09-07-2023,08-10-2023,,,,,,,,,,
851897428968,Sanjay Pillai,Individual,Individual,20-09-1984,Rahul Banerjee,Indian,Indian,Resident,India,KNMPS0087D,380947358253,XXXX-XXXX-5283,AADHAAR-5635XXXX0874,8336047783,sanjay.pillai274@rediffmail.com,"232, MG Road, Bhagalpur, Bihar - 541020",Bihar,Bhagalpur,21.349871,81.357944,Student,1778207,37,Pension,Medium,N,N,N,Y,N,22-07-2022,27-04-2023,,,,,,,,,,
523443842137,Diamond Ventures,Non-Individual,Sole Proprietorship,,,Indian,,Resident,India,XPUFE3006M,,,,9894195374,diamond386@rediffmail.com,,West Bengal,Howrah,19.974029,78.148635,Education,88088368,,Government Grant,Low,N,N,N,N,N,05-10-2008,01-09-2015,18-11-2000,"Howrah, West Bengal",Control through other means,N,"165 Corporate Park, Howrah, West Bengal - 391772","Plot 151, Industrial Area, Howrah, West Bengal","818, Residential Colony, Howrah, West Bengal",U44765OQ2010PTC153000,622737260282,Akash Agarwal
709243253862,Ritu Rao,Individual,Individual,28-08-1993,Sandeep Mehta,Indian,Indian,Resident,Other,VVXPK5214X,600906943605,XXXX-XXXX-2116,AADHAAR-6548XXXX7456,7008929107,ritu.rao412@yahoo.co.in,"30, MG Road, Bengaluru, Karnataka - 942829",Karnataka,Bengaluru,13.021096,77.572139,Salaried - IT,298240,26,Business Income,Low,N,N,N,N,N,10-09-2022,31-12-2024,,,,,,,,,,
757556767027,United Industries,Non-Individual,Society,,,Indian,,Resident,India,IUBFZ1445A,,,,9905387902,united658@rediffmail.com,,West Bengal,Durgapur,22.182246,78.189865,Real Estate,183510828,,Trading Profits,Low,N,N,N,Y,N,20-11-2009,10-03-2012,23-02-1991,"Durgapur, West Bengal",Shareholding > 25%,N,"63 Corporate Park, Durgapur, West Bengal - 465028","Plot 52, Industrial Area, Durgapur, West Bengal","439, Residential Colony, Durgapur, West Bengal",U61066EY2002PTC165339,845351366862,Neha Rao
302460117014,Tanvi Sen,Individual,Individual,14-06-1970,Amit Malhotra,Indian,Indian,Resident,India,BXGPQ8996E,875024915259,XXXX-XXXX-9521,AADHAAR-3864XXXX7800,6358835491,tanvi.sen434@rediffmail.com,"98, Park Street, Patna, Bihar - 219482",Bihar,Patna,25.610743,85.099647,Business Owner,132613,26,Salary,Low,N,N,N,Y,Y,10-09-2015,01-01-2020,,,,,,,,,,
868118253218,Sneha Mukherjee,Individual,Individual,09-01-1968,Suresh Rao,Indian,Indian,Resident,India,GTJPN8503P,453066450930,XXXX-XXXX-0675,AADHAAR-5700XXXX1950,6174049747,sneha.mukherjee627@outlook.com,"438, Ring Road, Gurugram, Haryana - 292115",Haryana,Gurugram,24.480925,76.844822,Salaried - IT,832602,11,Family Support,Medium,N,N,N,N,N,01-10-2019,30-03-2021,,,,,,,,,,
934582042433,Ankit Banerjee,Individual,Individual,16-08-1971,Vikram Verma,Indian,Indian,Resident,India,URVPH4895W,255960073976,XXXX-XXXX-5602,AADHAAR-3050XXXX9240,6172967052,ankit.banerjee445@gmail.com,"445, Station Road, Amritsar, Punjab - 286989",Punjab,Amritsar,24.702379,78.769413,Salaried - Government,824342,24,Rental Income,Medium,N,N,N,Y,N,25-12-2020,24-01-2022,,,,,,,,,,
535132952580,Anil Kapoor,Individual,Individual,07-07-1992,Pradeep Chatterjee,Indian,Indian,Resident,India,KGSPB4408J,299388107593,XXXX-XXXX-1552,AADHAAR-7165XXXX0885,8970507652,anil.kapoor34@gmail.com,"353, Ring Road, Lucknow, Uttar Pradesh - 237597",Uttar Pradesh,Lucknow,26.836104,80.996102,Doctor,1435621,18,Agriculture Income,Medium,N,N,N,N,N,23-05-2020,11-03-2021,,,,,,,,,,
835373864487,Kavita Mishra,Individual,Individual,07-01-1988,Deepak Rao,Indian,Indian,Resident,India,HDQPQ5591F,243313941461,XXXX-XXXX-4284,AADHAAR-5912XXXX4094,8391372476,kavita.mishra285@gmail.com,"451, Nehru Place, Muzaffarpur, Bihar - 773750",Bihar,Muzaffarpur,23.633736,82.299496,Self-Employed - Professional,228660,15,Family Support,Low,N,N,N,Y,N,29-05-2015,20-03-2021,,,,,,,,,,
720511001957,Arjun Nair,Individual,Individual,28-06-1996,Gaurav Deshmukh,Indian,Indian,Resident,India,USXPY5325C,589024230393,XXXX-XXXX-1999,AADHAAR-2467XXXX0642,7009650571,arjun.nair329@outlook.com,"91, MG Road, Nizamabad, Telangana - 954262",Telangana,Nizamabad,23.118284,78.993869,Freelancer,147718,0,Rental Income,Low,N,N,N,N,N,28-05-2016,05-12-2021,,,,,,,,,,
813328743385,Sonal Mukherjee,Individual,Individual,24-06-1976,Harsh Shah,Indian,Indian,Resident,India,JMZPB6480E,761401774003,XXXX-XXXX-8605,AADHAAR-6961XXXX1248,6980626245,sonal.mukherjee836@rediffmail.com,"307, NH Highway, Rajkot, Gujarat - 961109",Gujarat,Rajkot,19.612902,79.277271,Business Owner,1587829,30,Investment Returns,Medium,N,N,N,Y,N,26-08-2018,17-07-2022,,,,,,,,,,
142622405542,Golden Imports,Non-Individual,Public Limited,,,Indian,,Resident,India,FPFAG5115Q,,,,7216620326,golden699@hotmail.com,,Karnataka,Hubli,18.436023,74.067581,Manufacturing,196790372,,Donations,High,N,N,N,Y,N,24-03-2019,19-06-2020,31-03-2013,"Hubli, Karnataka",Control through other means,N,"56 Corporate Park, Hubli, Karnataka - 231966","Plot 487, Industrial Area, Hubli, Karnataka","665, Residential Colony, Hubli, Karnataka",U37747NI2010PTC651254,241712094246,Swati Rao
100052674901,Nikhil Bose,Individual,Individual,23-03-1992,Tushar Das,Indian,Indian,Resident,India,THCPW7905N,584822759621,XXXX-XXXX-5014,AADHAAR-4794XXXX9693,9584666590,nikhil.bose221@rediffmail.com,"121, MG Road, Muzaffarpur, Bihar - 795571",Bihar,Muzaffarpur,17.374378,73.434207,Freelancer,367659,0,Family Support,Low,N,N,N,Y,Y,05-06-2020,13-07-2021,,,,,,,,,,
125042619281,Om Group,Non-Individual,Government Body,,,Indian,,Resident,India,VCNBS2844Z,,,,8141475556,om384@yahoo.co.in,,Odisha,Puri,18.543253,78.846105,Retail,247622020,,Trading Profits,Medium,N,N,N,N,N,16-12-2019,28-07-2024,09-01-2019,"Puri, Odisha",Senior Managing Official,N,"195 Corporate Park, Puri, Odisha - 125918","Plot 359, Industrial Area, Puri, Odisha","629, Residential Colony, Puri, Odisha",U21009SA2004PTC393903,283617534813,Sonal Deshmukh
812629954829,Sunita Malhotra,Individual,Individual,15-04-1990,Sandeep Iyer,Indian,Indian,Resident,India,WHWPF4855U,215967170326,XXXX-XXXX-4185,AADHAAR-7918XXXX1338,7504359127,sunita.malhotra732@rediffmail.com,"211, Nehru Place, Chennai, Tamil Nadu - 624740",Tamil Nadu,Chennai,13.09092,80.275971,Self-Employed - Professional,544343,30,Salary,Medium,N,N,N,N,Y,06-01-2015,10-02-2020,,,,,,,,,,
302776295987,Rohan Patel,Individual,Individual,14-08-2000,Vivek Shah,Indian,Indian,Resident,India,FGEPU4523G,241936153652,XXXX-XXXX-9127,AADHAAR-4773XXXX2298,9509812376,rohan.patel640@hotmail.com,"338, Station Road, Rajkot, Gujarat - 143573",Gujarat,Rajkot,23.908168,82.85592,Retired,6401750,24,Rental Income,High,Y,N,N,N,Y,29-09-2017,03-05-2024,,,,,,,,,,
380163012448,Anjali Chauhan,Individual,Individual,21-06-2002,Mohit Agarwal,Indian,Indian,Resident,India,WMMPW4997G,738852878795,XXXX-XXXX-8354,AADHAAR-3220XXXX8712,6733470316,anjali.chauhan557@outlook.com,"463, Nehru Place, Bhagalpur, Bihar - 774364",Bihar,Bhagalpur,22.88146,81.713705,Salaried - Banking,235639,23,Investment Returns,Low,N,N,N,N,N,04-05-2018,07-06-2024,,,,,,,,,,
753241346233,Suresh Pandey,Individual,Individual,25-04-1996,Pradeep Tiwari,Indian,Indian,Resident,Other,MMWPS5525L,380511411372,XXXX-XXXX-6259,AADHAAR-5523XXXX6799,9627176478,suresh.pandey175@yahoo.co.in,"146, Ring Road, Siliguri, West Bengal - 573974",West Bengal,Siliguri,23.06767,81.227293,Self-Employed - Professional,68304388,36,Business Income,Low,N,Y,N,N,Y,25-02-2022,11-05-2022,,,,,,,,,,
676146616521,Tushar Pillai,Individual,Individual,17-09-1984,Mohit Mehta,Indian,Indian,Resident,India,CIRPK9411N,730355114933,XXXX-XXXX-2364,AADHAAR-3639XXXX4282,6696140092,tushar.pillai966@gmail.com,"492, Gandhi Nagar, Hyderabad, Telangana - 821633",Telangana,Hyderabad,17.347469,78.495697,Self-Employed - Retail,173521,16,Salary,Low,N,N,N,N,N,18-10-2023,17-01-2025,,,,,,,,,,
671468537682,Shruti Singh,Individual,Individual,12-08-1979,Anil Verma,Indian,Indian,Resident,India,EOMPP4596Q,629135797328,XXXX-XXXX-9754,AADHAAR-5237XXXX1776,9753725667,shruti.singh695@rediffmail.com,"46, Ring Road, Cuttack, Odisha - 409904",Odisha,Cuttack,19.123964,77.01012,Salaried - Government,192016,34,Agriculture Income,Low,N,N,N,N,N,06-11-2017,31-08-2021,,,,,,,,,,
413367533936,Sapna Chatterjee,Individual,Individual,14-02-1963,Sandeep Reddy,Indian,Indian,Resident,India,SDSPD2475F,336835431508,XXXX-XXXX-0594,AADHAAR-7221XXXX0146,8395701036,sapna.chatterjee211@rediffmail.com,"314, Nehru Place, Rourkela, Odisha - 906521",Odisha,Rourkela,24.846009,81.058578,Consultant,394666,24,Business Income,Low,N,N,N,N,N,25-10-2020,02-02-2023,,,,,,,,,,
502073796465,Vandana Pillai,Individual,Individual,27-06-1981,Sandeep Kumar,Indian,Indian,Resident,India,ABUPB6644C,640249426317,XXXX-XXXX-3075,AADHAAR-4996XXXX7084,8590110811,vandana.pillai247@hotmail.com,"253, Ring Road, Indore, Madhya Pradesh - 807499",Madhya Pradesh,Indore,20.591223,82.982335,Freelancer,1296250,35,Family Support,Medium,N,N,N,N,N,22-07-2023,26-10-2024,,,,,,,,,,
827197955743,Global Infra,Non-Individual,Trust,,,Indian,,Resident,India,BTEHP3922U,,,,7646999986,global773@gmail.com,,Uttar Pradesh,Lucknow,26.802065,80.927451,Hospitality,486339227,,Business Revenue,High,N,N,N,N,N,16-07-2022,03-01-2023,02-07-2013,"Lucknow, Uttar Pradesh",Shareholding > 25%,N,"27 Corporate Park, Lucknow, Uttar Pradesh - 390217","Plot 3, Industrial Area, Lucknow, Uttar Pradesh","965, Residential Colony, Lucknow, Uttar Pradesh",U77633CB2016PTC571824,239470586947,Meera Tiwari
720217658051,Amit Mehta,Individual,Individual,04-03-1964,Pradeep Chatterjee,Indian,Indian,Resident,India,OYMPD0612L,602207056710,XXXX-XXXX-8511,AADHAAR-2490XXXX1582,9959792665,amit.mehta488@gmail.com,"184, Ring Road, Kochi, Kerala - 835994",Kerala,Kochi,9.928152,76.23394,Consultant,420239,12,Pension,Low,N,N,N,N,Y,11-03-2018,04-06-2021,,,,,,,,,,
126190641404,Geeta Das,Individual,Individual,04-04-1995,Kiran Verma,Indian,Indian,Resident,India,NQOPE0765L,956832273549,XXXX-XXXX-1603,AADHAAR-3548XXXX9726,6882046787,geeta.das38@rediffmail.com,"237, NH Highway, Nagpur, Maharashtra - 619762",Maharashtra,Nagpur,24.30874,80.75308,Self-Employed - Professional,1861128,7,Pension,Medium,N,N,N,N,N,08-02-2020,09-08-2021,,,,,,,,,,
519272518129,Rekha Iyer,Individual,Individual,13-09-1989,Aditya Chauhan,Indian,Indian,Resident,India,YNCPS1479B,595185730844,XXXX-XXXX-1728,AADHAAR-8344XXXX3970,9933373622,rekha.iyer893@outlook.com,"102, Nehru Place, Muzaffarpur, Bihar - 315184",Bihar,Muzaffarpur,19.686458,75.866159,Doctor,1611137,22,Agriculture Income,Medium,N,N,N,Y,Y,07-10-2019,18-08-2022,,,,,,,,,,
745228506216,Asha Bose,Individual,Individual,26-05-1970,Rahul Iyer,Indian,Indian,Resident,India,DKGPX7000F,412264578236,XXXX-XXXX-6515,AADHAAR-3430XXXX7111,8790238974,asha.bose59@outlook.com,"36, Park Street, Warangal, Telangana - 579683",Telangana,Warangal,24.550064,79.906157,Lawyer,420266,29,Investment Returns,Low,N,N,N,N,N,03-12-2018,27-09-2023,,,,,,,,,,
102529350125,Ashish Sen,Individual,Individual,01-08-2004,Ankit Malhotra,Indian,Indian,Resident,India,VMQPT4736Z,453547820591,XXXX-XXXX-4842,AADHAAR-2173XXXX6175,8315135827,ashish.sen15@outlook.com,"220, Ring Road, Pune, Maharashtra - 924111",Maharashtra,Pune,18.54762,73.876381,Doctor,178859,32,Family Support,Low,N,N,N,N,N,04-02-2019,27-01-2024,,,,,,,,,,
558866955717,Yash Patel,Individual,Individual,17-10-1970,Sandeep Chatterjee,Indian,Indian,Resident,India,WBXPF1495O,923589070825,XXXX-XXXX-8949,AADHAAR-7291XXXX2732,7813406958,yash.patel866@hotmail.com,"329, MG Road, Chandigarh, Punjab - 990186",Punjab,Chandigarh,30.708473,76.769191,Doctor,453515,4,Rental Income,Low,N,N,N,N,N,24-07-2022,07-10-2022,,,,,,,,,,
776915861897,Gaurav Sharma,Individual,Individual,01-01-1992,Tushar Bose,Indian,Indian,Resident,India,FSYPL3297Z,237367333218,XXXX-XXXX-3226,AADHAAR-6432XXXX3780,6693017712,gaurav.sharma908@hotmail.com,"316, MG Road, Varanasi, Uttar Pradesh - 445391",Uttar Pradesh,Varanasi,17.859125,77.679459,Salaried - Banking,376002,30,Salary,Low,N,N,N,N,N,26-01-2018,05-07-2021,,,,,,,,,,
867548038736,Bhavna Kumar,Individual,Individual,01-03-1973,Suresh Das,Indian,Indian,Resident,India,NHZPY2086V,982328806928,XXXX-XXXX-7345,AADHAAR-2541XXXX0434,6254006206,bhavna.kumar121@rediffmail.com,"218, Park Street, Chennai, Tamil Nadu - 912415",Tamil Nadu,Chennai,13.098506,80.259509,Lawyer,273623,7,Rental Income,Low,N,N,N,Y,N,28-10-2020,09-05-2023,,,,,,,,,,
231119756271,Vivek Iyer,Individual,Individual,10-09-1963,Harsh Kapoor,Indian,Indian,Resident,India,FKXPH8835E,287492615524,XXXX-XXXX-1896,AADHAAR-6310XXXX4467,7793516264,vivek.iyer993@yahoo.co.in,"281, MG Road, Vadodara, Gujarat - 105275",Gujarat,Vadodara,21.435878,74.672092,Salaried - IT,795535,20,Rental Income,Medium,N,N,N,N,N,06-08-2022,25-08-2022,,,,,,,,,,
413610993934,Gaurav Bose,Individual,Individual,21-11-1997,Akash Sen,Indian,Indian,Resident,India,FJAPS2200D,753428846779,XXXX-XXXX-6219,AADHAAR-9398XXXX6954,6896189629,gaurav.bose426@gmail.com,"107, Ring Road, Nagpur, Maharashtra - 499788",Maharashtra,Nagpur,16.270949,81.918398,Business Owner,194388,17,Agriculture Income,Low,N,N,N,N,N,01-02-2019,30-12-2023,,,,,,,,,,
730344448233,Sanjay Sharma,Individual,Individual,24-05-1988,Varun Reddy,Indian,Indian,Resident,India,KKSPM5340E,429322787754,XXXX-XXXX-4944,AADHAAR-2537XXXX3505,7267969432,sanjay.sharma456@gmail.com,"140, NH Highway, Thiruvananthapuram, Kerala - 381401",Kerala,Thiruvananthapuram,17.270273,82.434172,Salaried - IT,221951,15,Agriculture Income,Low,N,N,N,Y,N,12-06-2022,07-05-2024,,,,,,,,,,
285991575367,Sapna Chauhan,Individual,Individual,25-02-2011,Harsh Mishra,Indian,Indian,Resident,India,MLRPS0407M,246563335930,XXXX-XXXX-1241,AADHAAR-7908XXXX8634,6742065452,sapna.chauhan376@outlook.com,"490, MG Road, Gwalior, Madhya Pradesh - 745349",Madhya Pradesh,Gwalior,23.465771,79.85604,Lawyer,463452,0,Pension,Low,N,N,Y,N,N,15-01-2017,03-06-2017,,,,,,,,,,
744977543705,Sonal Pandey,Individual,Individual,10-02-1980,Ashish Singh,Indian,Indian,Resident,India,KTUPW1742L,245831646486,XXXX-XXXX-1652,AADHAAR-7253XXXX8761,7273549037,sonal.pandey557@rediffmail.com,"481, Station Road, Bhopal, Madhya Pradesh - 714912",Madhya Pradesh,Bhopal,23.249864,77.393075,Business Owner,638255,34,Rental Income,High,N,N,N,N,N,06-10-2022,24-01-2025,,,,,,,,,,
335145614166,Sanjay Patel,Individual,Individual,28-08-1979,Manoj Sharma,Indian,Indian,Resident,India,THPPV2828A,421806860494,XXXX-XXXX-2535,AADHAAR-6385XXXX6161,9885776806,sanjay.patel56@yahoo.co.in,"439, Gandhi Nagar, Panipat, Haryana - 492280",Haryana,Panipat,23.949387,78.017935,Salaried - Government,320832,28,Rental Income,Low,N,N,N,N,N,04-08-2023,25-04-2024,,,,,,,,,,
939881017804,United Solutions,Non-Individual,HUF,,,Indian,,Resident,India,ZHZTI3502U,,,,9400166303,united596@yahoo.co.in,,West Bengal,Kolkata,22.585888,88.408476,Manufacturing,148984400,,Government Grant,Low,N,N,N,N,N,09-11-2023,03-11-2024,28-03-2017,"Kolkata, West Bengal",Senior Managing Official,N,"143 Corporate Park, Kolkata, West Bengal - 737419","Plot 241, Industrial Area, Kolkata, West Bengal","284, Residential Colony, Kolkata, West Bengal",U29250LM2005PTC426193,906828099034,Aditya Verma
847981837919,Aditya Verma,Individual,Individual,08-03-1995,Ankit Mehta,Indian,Indian,Resident,India,NMCPZ7708K,501718090492,XXXX-XXXX-7364,AADHAAR-6568XXXX8531,9591230029,aditya.verma20@yahoo.co.in,"76, Park Street, Patna, Bihar - 929994",Bihar,Patna,25.59689,85.107897,Doctor,856596,26,Investment Returns,Medium,N,N,N,N,N,14-11-2022,02-11-2023,,,,,,,,,,
593738563075,Vandana Rao,Individual,Individual,14-07-1968,Kiran Banerjee,Indian,Indian,Resident,India,ZFZPZ5145I,806407257884,XXXX-XXXX-0129,AADHAAR-6889XXXX0766,9727837958,vandana.rao118@outlook.com,"219, MG Road, Kota, Rajasthan - 495969",Rajasthan,Kota,18.569043,76.908794,Salaried - IT,3598897,36,Salary,High,N,N,N,N,N,09-03-2016,22-07-2023,,,,,,,,,,
934377590937,Rekha Mukherjee,Individual,Individual,05-10-1981,Naveen Verma,Indian,Indian,Resident,India,TFFPI2399K,959839629698,XXXX-XXXX-8428,AADHAAR-7044XXXX5219,7282808727,rekha.mukherjee905@gmail.com,"393, Station Road, Nizamabad, Telangana - 900865",Telangana,Nizamabad,16.285301,79.2219,Business Owner,1114113,15,Business Income,Medium,N,N,N,Y,N,01-03-2018,26-06-2020,,,,,,,,,,
519362078019,Sneha Tiwari,Individual,Individual,18-04-1966,Naveen Das,Indian,Indian,Resident,India,NIMPQ2705V,658965348188,XXXX-XXXX-2728,AADHAAR-6918XXXX3746,6861528675,sneha.tiwari114@rediffmail.com,"283, MG Road, Noida, Uttar Pradesh - 764330",Uttar Pradesh,Noida,19.131642,73.068631,Salaried - IT,998154,22,Salary,Medium,N,N,N,N,N,19-10-2017,24-06-2018,,,,,,,,,,
397639926569,Pradeep Yadav,Individual,Individual,03-04-1978,Gaurav Chatterjee,Indian,Indian,Resident,Other,OAUPF1702Q,710153292866,XXXX-XXXX-6205,AADHAAR-3102XXXX6666,6933927985,pradeep.yadav264@yahoo.co.in,"402, Nehru Place, Pune, Maharashtra - 635101",Maharashtra,Pune,18.48015,73.830757,Consultant,170894,30,Salary,Low,N,N,N,N,Y,16-07-2020,23-04-2023,,,,,,,,,,
952605383852,Shweta Mehta,Individual,Individual,30-03-2006,Amit Nair,Indian,Indian,Resident,India,LRJPL0508D,965698643007,XXXX-XXXX-0258,AADHAAR-9262XXXX3378,6476732117,shweta.mehta604@yahoo.co.in,"305, Station Road, Faridabad, Haryana - 679317",Haryana,Faridabad,17.113059,75.590712,Business Owner,347157,9,Salary,Low,N,N,N,N,N,06-11-2023,19-02-2025,,,,,,,,,,
736469677782,Pranav Banerjee,Individual,Individual,18-12-2000,Sandeep Rao,Indian,Indian,Resident,India,EIQPV7761K,805728163480,XXXX-XXXX-7726,AADHAAR-9287XXXX7186,6562004338,pranav.banerjee625@hotmail.com,"267, MG Road, Rajkot, Gujarat - 955745",Gujarat,Rajkot,24.50679,81.350108,Self-Employed - Professional,186542,12,Agriculture Income,Low,N,N,N,N,Y,24-05-2017,03-03-2024,,,,,,,,,,
388212313985,Star Associates,Non-Individual,Government Body,,,Indian,,Resident,India,JXXFC7871H,,,,6122080114,star244@hotmail.com,,Delhi,Rohini,24.283962,73.888416,Textiles,305728329,,Business Revenue,Medium,N,N,N,N,N,27-11-2000,12-11-2012,13-01-2000,"Rohini, Delhi",Senior Managing Official,N,"169 Corporate Park, Rohini, Delhi - 384647","Plot 139, Industrial Area, Rohini, Delhi","376, Residential Colony, Rohini, Delhi",U99569KI2024PTC158393,902514232384,Rohan Pillai
345372994496,Gaurav Nair,Individual,Individual,09-10-2004,Ashish Singh,Indian,Indian,Resident,India,LYJPE1102Q,308392463737,XXXX-XXXX-3059,AADHAAR-8992XXXX9532,7697822170,gaurav.nair421@hotmail.com,"48, Ring Road, Patna, Bihar - 185682",Bihar,Patna,25.573891,85.105062,Salaried - IT,2213639,7,Agriculture Income,Medium,N,N,N,Y,Y,26-11-2020,31-07-2021,,,,,,,,,,
803288256003,Meera Chauhan,Individual,Individual,28-12-1973,Harsh Das,Indian,Indian,Resident,India,AZQPJ0063R,586287936341,XXXX-XXXX-1984,AADHAAR-6748XXXX9005,7087604453,meera.chauhan222@yahoo.co.in,"244, Park Street, Howrah, West Bengal - 839123",West Bengal,Howrah,16.56725,79.376987,Student,465543,18,Rental Income,Low,N,N,N,N,N,10-05-2018,24-10-2018,,,,,,,,,,
776381530763,Geeta Bhat,Individual,Individual,19-07-1992,Ankit Deshmukh,Indian,Indian,Resident,India,IGPPE4312K,582531931606,XXXX-XXXX-7292,AADHAAR-5993XXXX5039,6979284540,geeta.bhat212@gmail.com,"132, NH Highway, Surat, Gujarat - 895431",Gujarat,Surat,22.633288,78.555746,Salaried - Banking,6444234,32,Pension,High,N,N,N,N,Y,03-09-2023,23-10-2023,,,,,,,,,,
204539588849,Kiran Verma,Individual,Individual,16-01-1964,Yash Reddy,Indian,Indian,Resident,India,JXUPH7882Z,524264206909,XXXX-XXXX-0844,AADHAAR-7444XXXX4631,6004863523,kiran.verma847@hotmail.com,"291, NH Highway, Ludhiana, Punjab - 748605",Punjab,Ludhiana,15.482287,81.194562,Doctor,8071465,20,Salary,High,Y,N,N,Y,N,28-10-2016,26-05-2017,,,,,,,,,,
951307737554,Sunita Tiwari,Individual,Individual,25-06-1990,Pradeep Pillai,Indian,Indian,Resident,India,BYXPE8786T,388500212237,XXXX-XXXX-6973,AADHAAR-6884XXXX3786,6754332347,sunita.tiwari484@yahoo.co.in,"234, MG Road, Rajkot, Gujarat - 797960",Gujarat,Rajkot,17.583716,75.384451,Business Owner,246431,11,Pension,Low,N,N,N,N,Y,15-01-2017,24-08-2021,,,,,,,,,,
164065756172,Tanvi Sen,Individual,Individual,03-10-1985,Varun Mehta,Indian,Indian,Resident,Other,AWXPB5390P,527770506991,XXXX-XXXX-3192,AADHAAR-3878XXXX1710,7003968816,tanvi.sen52@outlook.com,"48, MG Road, Howrah, West Bengal - 339432",West Bengal,Howrah,24.75181,78.250553,Lawyer,315978,21,Salary,Low,N,N,N,Y,N,27-05-2019,01-09-2022,,,,,,,,,,
396929748328,Neha Shah,Individual,Individual,06-11-1989,Anil Agarwal,Indian,Indian,NRI,India,DLIPT5754C,948460143881,XXXX-XXXX-8861,AADHAAR-9714XXXX9753,8234567279,neha.shah705@rediffmail.com,"301, Station Road, Panipat, Haryana - 907517",Haryana,Panipat,19.212663,80.958373,Lawyer,499641,37,Investment Returns,Low,N,N,N,Y,N,24-10-2022,11-02-2024,,,,,,,,,,
578292143755,Geeta Singh,Individual,Individual,12-06-1993,Rohan Mukherjee,Indian,Indian,Resident,India,NZBPA5617E,730930157648,XXXX-XXXX-6770,AADHAAR-4736XXXX9356,9919749635,geeta.singh592@outlook.com,"307, Ring Road, Bhagalpur, Bihar - 769797",Bihar,Bhagalpur,21.98084,74.504736,Retired,1133398,13,Agriculture Income,Medium,N,N,N,N,N,07-08-2023,14-10-2024,,,,,,,,,,
196871281101,Rohan Reddy,Individual,Individual,22-01-1966,Amit Chatterjee,Indian,Indian,Resident,India,DIDPJ9807Y,596566526783,XXXX-XXXX-4104,AADHAAR-2726XXXX2239,7393060495,rohan.reddy537@outlook.com,"463, NH Highway, New Delhi, Delhi - 619906",Delhi,New Delhi,28.627944,77.232129,Self-Employed - Professional,2253375,15,Investment Returns,Medium,N,N,N,N,Y,02-09-2020,28-08-2022,,,,,,,,,,
104144079944,Sanjay Sharma,Individual,Individual,07-12-1962,Pranav Yadav,Indian,Indian,Resident,India,EYLPK9012Z,816139193043,XXXX-XXXX-8349,AADHAAR-6897XXXX5810,7644874219,sanjay.sharma13@yahoo.co.in,"67, Station Road, Bhagalpur, Bihar - 145936",Bihar,Bhagalpur,21.656167,76.894253,Freelancer,411463,35,Investment Returns,Low,N,N,N,Y,N,13-07-2020,07-12-2022,,,,,,,,,,
825729684580,Geeta Tiwari,Individual,Individual,13-06-1973,Akash Agarwal,Indian,Indian,Resident,India,VIOPP9063Q,231620208393,XXXX-XXXX-6650,AADHAAR-3181XXXX8295,6310635394,geeta.tiwari936@outlook.com,"200, Station Road, Bengaluru, Karnataka - 703396",Karnataka,Bengaluru,12.960045,77.551799,Salaried - Government,384151,25,Family Support,Low,N,N,N,Y,N,29-12-2021,09-06-2024,,,,,,,,,,
505040522229,Ashish Kapoor,Individual,Individual,24-07-1970,Rohan Pandey,Indian,Indian,Resident,India,PBGPN0035Z,882165494232,XXXX-XXXX-3772,AADHAAR-6205XXXX3394,8965782826,ashish.kapoor162@rediffmail.com,"40, Park Street, Karimnagar, Telangana - 719961",Telangana,Karimnagar,18.168979,75.704774,Salaried - IT,259495,34,Rental Income,Low,N,N,N,Y,Y,09-04-2022,04-02-2024,,,,,,,,,,
266920873777,National Capital,Non-Individual,Partnership,,,Indian,,Resident,India,HUXBY9098R,,,,8372011344,national167@yahoo.co.in,,Rajasthan,Jaipur,26.888776,75.759019,IT Services,142687906,,Donations,Low,N,N,N,N,N,09-01-2020,16-07-2024,11-11-2017,"Jaipur, Rajasthan",Shareholding > 25%,N,"130 Corporate Park, Jaipur, Rajasthan - 277213","Plot 313, Industrial Area, Jaipur, Rajasthan","675, Residential Colony, Jaipur, Rajasthan",U86291AS1998PTC608558,961513917719,Kavita Agarwal
365499319883,Rahul Mukherjee,Individual,Individual,28-03-1979,Amit Singh,Indian,Indian,Resident,India,EDSPH8490H,703093577131,XXXX-XXXX-1210,AADHAAR-5157XXXX4819,6264243149,rahul.mukherjee367@hotmail.com,"214, MG Road, Jaipur, Rajasthan - 679542",Rajasthan,Jaipur,26.893732,75.798873,Doctor,382443,24,Salary,Low,N,N,N,N,Y,13-04-2022,29-09-2024,,,,,,,,,,
829652435145,Naveen Agarwal,Individual,Individual,30-09-2001,Sandeep Nair,Indian,Indian,Resident,India,RMFPT8454W,678966889892,XXXX-XXXX-4827,AADHAAR-5549XXXX8317,8976026165,naveen.agarwal611@gmail.com,"75, MG Road, Chandigarh, Punjab - 480532",Punjab,Chandigarh,30.722627,76.777232,Freelancer,855574,16,Family Support,Medium,N,N,N,N,Y,02-07-2021,23-09-2021,,,,,,,,,,
756483593621,Tanvi Iyer,Individual,Individual,05-02-1991,Rahul Banerjee,Indian,Indian,Resident,India,CMFPH3490W,564744555572,XXXX-XXXX-4300,AADHAAR-9093XXXX0856,8590413472,tanvi.iyer502@hotmail.com,"1, Nehru Place, Noida, Uttar Pradesh - 304130",Uttar Pradesh,Noida,19.739612,82.411984,Lawyer,431671,32,Salary,Low,N,N,N,N,N,19-03-2016,12-06-2017,,,,,,,,,,
547500676903,Gaurav Joshi,Individual,Individual,13-07-1999,Vivek Iyer,Indian,Indian,Resident,India,ZHNPB1179V,215078115772,XXXX-XXXX-9397,AADHAAR-2446XXXX2842,7654994659,gaurav.joshi666@yahoo.co.in,"85, Station Road, Kolkata, West Bengal - 448632",West Bengal,Kolkata,22.556304,88.407527,Consultant,13025385,14,Investment Returns,Low,N,Y,N,Y,N,29-07-2023,23-01-2025,,,,,,,,,,
879773640053,Yash Bose,Individual,Individual,10-10-1999,Pranav Tiwari,Indian,Indian,Resident,India,NRWPG2904S,361042734006,XXXX-XXXX-3818,AADHAAR-3522XXXX0924,9423477427,yash.bose907@gmail.com,"203, Ring Road, Nizamabad, Telangana - 922062",Telangana,Nizamabad,24.423303,82.955692,Salaried - Government,379362,18,Agriculture Income,Low,N,N,N,Y,N,13-05-2024,09-03-2025,,,,,,,,,,
821188046647,Apex Trading Co,Non-Individual,Public Limited,,,Indian,,Resident,India,BEXFX8051J,,,,6935632916,apex156@outlook.com,,Delhi,Rohini,20.996778,75.351052,Real Estate,351196978,,Investment,Low,N,N,N,N,N,20-02-2020,31-01-2023,20-05-2016,"Rohini, Delhi",Senior Managing Official,Y,"55 Corporate Park, Rohini, Delhi - 186017","Plot 345, Industrial Area, Rohini, Delhi","802, Residential Colony, Rohini, Delhi",U89710NM2023PTC180458,390716855909,Gaurav Iyer
928632287821,Rashmi Pandey,Individual,Individual,01-06-1986,Rahul Bhat,Indian,Indian,Resident,India,HPYPY5709M,426609887904,XXXX-XXXX-0794,AADHAAR-9388XXXX2590,9530802116,rashmi.pandey966@yahoo.co.in,"311, Ring Road, Pune, Maharashtra - 559006",Maharashtra,Pune,18.557038,73.828038,Agriculture,398803,40,Agriculture Income,Low,N,N,N,N,N,08-11-2016,14-11-2020,,,,,,,,,,
686852908996,Royal Trading Co,Non-Individual,Trust,,,Indian,,Resident,India,EPKLX9587B,,,,7533884194,royal861@outlook.com,,Tamil Nadu,Madurai,19.920803,73.535597,Hospitality,366896304,,Donations,Low,N,N,N,N,N,22-12-2020,01-03-2021,02-10-2007,"Madurai, Tamil Nadu",Senior Managing Official,N,"106 Corporate Park, Madurai, Tamil Nadu - 885531","Plot 311, Industrial Area, Madurai, Tamil Nadu","138, Residential Colony, Madurai, Tamil Nadu",U91739EK2004PTC733669,850954324620,Asha Malhotra
302701031484,Harsh Patel,Individual,Individual,13-07-2002,Amit Kapoor,Indian,Indian,Resident,India,AKMPP4337I,463051188897,XXXX-XXXX-4628,AADHAAR-9094XXXX5450,6042799032,harsh.patel791@gmail.com,"333, MG Road, Mumbai, Maharashtra - 465376",Maharashtra,Mumbai,19.029763,72.905926,Agriculture,420077,9,Rental Income,Low,N,N,N,N,N,20-11-2019,25-12-2023,,,,,,,,,,
545538187269,Komal Sharma,Individual,Individual,23-05-1960,Anil Deshmukh,Indian,Indian,Resident,India,IDKPW3047T,692648170640,XXXX-XXXX-1725,AADHAAR-4949XXXX6105,7264589375,komal.sharma199@yahoo.co.in,"387, Gandhi Nagar, Dwarka, Delhi - 957627",Delhi,Dwarka,17.236442,74.509182,Self-Employed - Retail,1020791,37,Pension,Medium,N,N,N,N,N,17-11-2017,14-01-2022,,,,,,,,,,
441710071725,Gaurav Das,Individual,Individual,20-02-2002,Vikram Pillai,Indian,Indian,NRI,India,QWAPI3323W,869741992303,XXXX-XXXX-4382,AADHAAR-5310XXXX6125,9579125380,gaurav.das247@rediffmail.com,"147, Station Road, Dwarka, Delhi - 734758",Delhi,Dwarka,16.216495,77.832755,Salaried - Government,1418518,17,Pension,High,N,N,N,N,N,17-05-2016,18-04-2021,,,,,,,,,,
996480989515,Jyoti Sharma,Individual,Individual,30-03-1965,Varun Rao,Indian,Indian,Resident,India,GCVPH4524K,314176320687,XXXX-XXXX-3490,AADHAAR-7139XXXX9558,8005712196,jyoti.sharma715@hotmail.com,"47, Station Road, Karimnagar, Telangana - 442178",Telangana,Karimnagar,22.889012,77.383084,Freelancer,442516,23,Business Income,Low,N,N,N,N,Y,10-12-2022,12-09-2023,,,,,,,,,,
213361537319,Harsh Mehta,Individual,Individual,18-04-1969,Sanjay Pillai,Indian,Indian,Resident,India,PIBPD7385B,844693334445,XXXX-XXXX-5170,AADHAAR-9051XXXX6761,6083288068,harsh.mehta950@outlook.com,"8, NH Highway, Rajkot, Gujarat - 930578",Gujarat,Rajkot,20.134845,75.210668,Self-Employed - Professional,2138251,6,Rental Income,Medium,N,N,N,N,N,19-12-2020,14-09-2021,,,,,,,,,,
786177135474,Komal Yadav,Individual,Individual,12-05-1981,Pranav Patel,Indian,Indian,Resident,India,AUKPD5014G,869584491677,XXXX-XXXX-1898,AADHAAR-8015XXXX9990,8137158809,komal.yadav853@yahoo.co.in,"307, MG Road, Mysuru, Karnataka - 958745",Karnataka,Mysuru,18.459982,75.128108,Retired,1641127,8,Pension,Medium,N,N,N,Y,Y,21-12-2023,28-12-2023,,,,,,,,,,
400693817329,Naveen Deshmukh,Individual,Individual,21-12-2004,Aditya Kapoor,Indian,Indian,Resident,India,ACSPU2540G,827691567551,XXXX-XXXX-2686,AADHAAR-9856XXXX9030,8175633913,naveen.deshmukh290@gmail.com,"195, Gandhi Nagar, Indore, Madhya Pradesh - 375171",Madhya Pradesh,Indore,24.2499,74.927468,Self-Employed - Professional,657841,10,Salary,Medium,N,N,N,Y,N,16-03-2015,11-11-2015,,,,,,,,,,
852813741752,Divya Agarwal,Individual,Individual,18-06-1985,Vikram Deshmukh,Indian,Indian,Resident,India,AHGPG3418W,393060803504,XXXX-XXXX-0796,AADHAAR-7828XXXX9348,7615146346,divya.agarwal643@gmail.com,"498, Ring Road, Nashik, Maharashtra - 346211",Maharashtra,Nashik,16.732937,74.096946,Student,539574,20,Agriculture Income,Medium,N,N,N,N,N,24-08-2018,23-06-2023,,,,,,,,,,
501026896309,Aditi Reddy,Individual,Individual,28-12-2002,Sachin Deshmukh,Indian,Indian,Resident,India,BIAPC1213T,263898634896,XXXX-XXXX-5037,AADHAAR-4540XXXX8184,8816323229,aditi.reddy846@gmail.com,"36, MG Road, Howrah, West Bengal - 705670",West Bengal,Howrah,21.98136,79.389937,Freelancer,207662,35,Business Income,Low,N,N,N,N,N,19-04-2023,29-05-2023,,,,,,,,,,
665615588538,Silver Ventures,Non-Individual,Private Limited,,,Indian,,Resident,India,FYBJU7734B,,,,9314960721,silver390@yahoo.co.in,,Haryana,Panipat,20.27696,81.170248,Agriculture,369009858,,Government Grant,Low,N,N,N,N,N,14-06-2011,02-03-2025,01-12-1999,"Panipat, Haryana",Senior Managing Official,N,"76 Corporate Park, Panipat, Haryana - 997054","Plot 360, Industrial Area, Panipat, Haryana","657, Residential Colony, Panipat, Haryana",U10905CT1996PTC124344,563969254428,Vandana Reddy
324217929816,Sonal Pandey,Individual,Individual,30-03-2012,Aditya Chatterjee,Indian,Indian,Resident,India,CPYPP1740D,731976196205,XXXX-XXXX-4510,AADHAAR-4297XXXX1468,8007156625,sonal.pandey1@rediffmail.com,"330, Gandhi Nagar, Panipat, Haryana - 921142",Haryana,Panipat,18.83069,73.822638,Retired,174938,0,Salary,Low,N,N,Y,Y,N,27-06-2020,05-09-2020,,,,,,,,,,
537983242097,Kavita Joshi,Individual,Individual,11-04-1993,Suresh Nair,Indian,Indian,NRI,India,KQOPF0877T,531190737941,XXXX-XXXX-6393,AADHAAR-9066XXXX7088,8159633687,kavita.joshi337@outlook.com,"209, Nehru Place, New Delhi, Delhi - 787000",Delhi,New Delhi,28.651576,77.239838,Agriculture,135240,20,Family Support,Low,N,N,N,Y,N,18-11-2015,09-06-2018,,,,,,,,,,
307360227125,Neha Shah,Individual,Individual,29-11-2003,Kiran Das,Indian,Indian,Resident,Other,FGVPU6698I,944022066440,XXXX-XXXX-5489,AADHAAR-9969XXXX5591,6869406780,neha.shah183@hotmail.com,"282, MG Road, Bhubaneswar, Odisha - 762096",Odisha,Bhubaneswar,20.273869,85.778991,Business Owner,1905256,21,Pension,Medium,N,N,N,N,N,13-04-2019,19-04-2024,,,,,,,,,,
227172948083,Pranav Gupta,Individual,Individual,25-11-1986,Pranav Agarwal,Indian,Indian,Resident,India,SGOPW4409S,452622984839,XXXX-XXXX-0757,AADHAAR-4184XXXX6925,6097958460,pranav.gupta486@rediffmail.com,"315, MG Road, Jaipur, Rajasthan - 443301",Rajasthan,Jaipur,26.95683,75.826756,Salaried - Government,977997,40,Investment Returns,High,N,N,N,Y,N,24-05-2024,11-10-2024,,,,,,,,,,
657166740112,Gaurav Mukherjee,Individual,Individual,14-05-1974,Akash Nair,Indian,Indian,Resident,India,SCNPQ4276L,868224471917,XXXX-XXXX-2337,AADHAAR-7482XXXX6399,8084887007,gaurav.mukherjee406@rediffmail.com,"216, Park Street, Ahmedabad, Gujarat - 827243",Gujarat,Ahmedabad,23.037808,72.578924,Agriculture,200095,35,Pension,Low,N,N,N,N,Y,07-03-2023,23-11-2023,,,,,,,,,,
761806600639,Varun Gupta,Individual,Individual,16-06-2000,Nikhil Malhotra,Indian,Indian,Resident,India,RZMPP9412L,995846698048,XXXX-XXXX-5044,AADHAAR-7139XXXX3718,6122424874,varun.gupta103@hotmail.com,"388, Station Road, Bengaluru, Karnataka - 764219",Karnataka,Bengaluru,12.961393,77.61487,Doctor,279096,13,Pension,Low,N,N,N,N,N,14-05-2023,09-03-2024,,,,,,,,,,
206933974680,Rashmi Joshi,Individual,Individual,23-10-1971,Varun Pandey,Indian,Indian,Resident,India,YQSPE1203W,405879945113,XXXX-XXXX-9610,AADHAAR-8686XXXX9142,9924420563,rashmi.joshi17@outlook.com,"339, Park Street, Gaya, Bihar - 101486",Bihar,Gaya,19.640492,77.387157,Agriculture,390458,1,Pension,Low,N,N,N,N,Y,08-03-2019,27-01-2021,,,,,,,,,,
213859714861,Aditi Mehta,Individual,Individual,28-08-1988,Pradeep Joshi,Indian,Indian,Resident,India,RBOPZ4971A,827849353191,XXXX-XXXX-5689,AADHAAR-7605XXXX9398,6986938239,aditi.mehta158@yahoo.co.in,"481, MG Road, Rourkela, Odisha - 253113",Odisha,Rourkela,22.154045,78.343209,Salaried - Banking,1485679,34,Family Support,Medium,N,N,N,N,N,04-11-2021,09-09-2024,,,,,,,,,,
517367061511,Apex Imports,Non-Individual,LLP,,,Indian,,Resident,India,CAICE9428E,,,,6529806347,apex235@outlook.com,,Gujarat,Surat,23.996518,81.446113,IT Services,72035691,,Government Grant,Medium,N,N,N,N,N,01-04-2007,27-03-2011,23-08-1995,"Surat, Gujarat",Senior Managing Official,N,"67 Corporate Park, Surat, Gujarat - 358125","Plot 379, Industrial Area, Surat, Gujarat","869, Residential Colony, Surat, Gujarat",U28478JB2002PTC974872,522971805732,Rohan Bose
204633415090,Sunita Singh,Individual,Individual,23-03-1965,Naveen Pillai,Indian,Indian,Resident,India,MACPG5577Z,643308918651,XXXX-XXXX-4084,AADHAAR-4941XXXX3592,8414844819,sunita.singh639@gmail.com,"280, Park Street, Muzaffarpur, Bihar - 353036",Bihar,Muzaffarpur,19.029143,73.587119,Self-Employed - Retail,127836,12,Family Support,Low,N,N,N,N,N,23-03-2016,12-01-2020,,,,,,,,,,
480710088070,Ashish Mishra,Individual,Individual,30-08-1967,Harsh Reddy,Indian,Indian,Resident,India,NRFPL4330A,580415814680,XXXX-XXXX-9961,AADHAAR-5802XXXX6283,6903919304,ashish.mishra282@rediffmail.com,"119, MG Road, Durgapur, West Bengal - 204177",West Bengal,Durgapur,21.558676,78.504767,Agriculture,1455492,17,Family Support,Medium,N,N,N,N,Y,21-06-2016,09-06-2020,,,,,,,,,,
462273242063,Bhavna Iyer,Individual,Individual,07-05-1972,Nikhil Chatterjee,Indian,Indian,Resident,India,NSKPN2710X,763226585084,XXXX-XXXX-5749,AADHAAR-9165XXXX6584,8358750448,bhavna.iyer837@yahoo.co.in,"350, Park Street, Rourkela, Odisha - 454528",Odisha,Rourkela,19.246964,81.176492,Retired,264449,13,Pension,Low,N,N,N,Y,N,05-12-2021,19-11-2022,,,,,,,,,,
737624390689,Rohan Kumar,Individual,Individual,08-07-1966,Manoj Yadav,Indian,Indian,Resident,India,DOCPZ0098X,469818068953,XXXX-XXXX-7704,AADHAAR-7185XXXX1756,9269121648,rohan.kumar941@rediffmail.com,"358, Nehru Place, Varanasi, Uttar Pradesh - 744264",Uttar Pradesh,Varanasi,24.833165,75.697785,Salaried - IT,1072756,33,Family Support,Medium,N,N,N,N,N,16-07-2019,15-10-2023,,,,,,,,,,
100482462248,Ashish Mishra,Individual,Individual,28-10-1982,Vikram Singh,Indian,Indian,Resident,India,LLSPN6499U,729562206328,XXXX-XXXX-6743,AADHAAR-5521XXXX0420,7999413612,ashish.mishra717@outlook.com,"70, Gandhi Nagar, Jaipur, Rajasthan - 524218",Rajasthan,Jaipur,26.930588,75.827362,Salaried - Banking,346054,37,Business Income,Low,N,N,N,Y,N,25-11-2023,19-06-2024,,,,,,,,,,
387109584425,Diamond Industries,Non-Individual,Sole Proprietorship,,,Indian,,Resident,India,LDBFU6484X,,,,8828744524,diamond746@gmail.com,,Odisha,Puri,24.255906,76.604772,Pharmaceuticals,394985404,,Donations,Low,N,N,N,N,N,08-01-2024,27-05-2024,13-10-2015,"Puri, Odisha",Senior Managing Official,N,"98 Corporate Park, Puri, Odisha - 886461","Plot 269, Industrial Area, Puri, Odisha","656, Residential Colony, Puri, Odisha",U55376QL2004PTC368350,309087065823,Priya Agarwal
515730416076,Tushar Sen,Individual,Individual,13-08-1972,Vivek Gupta,Indian,Indian,Resident,India,FFOPL2343P,755616879340,XXXX-XXXX-5343,AADHAAR-6728XXXX7978,8695614251,tushar.sen533@yahoo.co.in,"187, Park Street, Muzaffarpur, Bihar - 827830",Bihar,Muzaffarpur,20.740254,73.916484,Agriculture,466025,23,Agriculture Income,Low,N,N,N,N,N,24-12-2017,25-04-2023,,,,,,,,,,
843472797373,Komal Mishra,Individual,Individual,09-09-1996,Anil Malhotra,Indian,Indian,Resident,India,ZGEPY7637D,713735323754,XXXX-XXXX-1693,AADHAAR-4053XXXX8929,7133476938,komal.mishra859@gmail.com,"3, Gandhi Nagar, Noida, Uttar Pradesh - 995408",Uttar Pradesh,Noida,17.145252,73.677279,Salaried - Government,1435175,7,Family Support,Medium,N,N,N,Y,N,22-03-2015,05-04-2016,,,,,,,,,,
153706682160,Apex Enterprises,Non-Individual,Private Limited,,,Indian,,Resident,India,IJGLI4242B,,,,6545603102,apex507@yahoo.co.in,,Odisha,Puri,24.407834,76.278932,Healthcare,175640896,,Business Revenue,Medium,N,N,N,N,N,15-07-2023,23-02-2025,01-01-2023,"Puri, Odisha",Control through other means,N,"117 Corporate Park, Puri, Odisha - 229247","Plot 25, Industrial Area, Puri, Odisha","758, Residential Colony, Puri, Odisha",U82341UT2005PTC356130,574039808080,Shruti Bhat
356320563999,Royal Exports,Non-Individual,Public Limited,,,Indian,,Resident,India,BZRBB3927O,,,,6828540935,royal997@rediffmail.com,,Haryana,Faridabad,21.660242,75.372751,Construction,8390504,,Business Revenue,Low,N,N,N,Y,N,06-04-2024,22-07-2024,22-03-2010,"Faridabad, Haryana",Senior Managing Official,N,"1 Corporate Park, Faridabad, Haryana - 952342","Plot 354, Industrial Area, Faridabad, Haryana","578, Residential Colony, Faridabad, Haryana",U21787IK2002PTC669831,819293096978,Sandeep Das
677535629639,United Capital,Non-Individual,Public Limited,,,Indian,,Resident,India,CTULW0602S,,,,9939638075,united183@gmail.com,,Punjab,Amritsar,24.987359,73.073177,Logistics,32872683,,Investment,Low,N,N,N,Y,N,15-07-2002,14-05-2011,12-07-2002,"Amritsar, Punjab",Control through other means,N,"163 Corporate Park, Amritsar, Punjab - 602954","Plot 473, Industrial Area, Amritsar, Punjab","374, Residential Colony, Amritsar, Punjab",U68427KT1992PTC135424,967343538261,Komal Mehta
331719711340,Nikhil Mukherjee,Individual,Individual,27-01-2005,Mohit Gupta,Indian,Indian,Resident,India,IDGPF5071E,627492006545,XXXX-XXXX-2418,AADHAAR-5252XXXX7838,7875596350,nikhil.mukherjee130@gmail.com,"103, MG Road, Faridabad, Haryana - 987015",Haryana,Faridabad,21.387095,79.461548,Self-Employed - Professional,310435,37,Rental Income,Low,N,N,N,N,Y,10-06-2015,16-09-2018,,,,,,,,,,
869494655725,Pallavi Bhat,Individual,Individual,25-01-1986,Nikhil Sharma,Indian,Indian,Resident,India,DGAPF9278E,253113373141,XXXX-XXXX-5089,AADHAAR-4283XXXX1946,9960758556,pallavi.bhat447@gmail.com,"357, Station Road, Warangal, Telangana - 968356",Telangana,Warangal,22.275744,80.010856,Doctor,322943,21,Business Income,Low,N,N,N,N,N,18-11-2017,29-04-2018,,,,,,,,,,
990766206006,Bharat Solutions,Non-Individual,HUF,,,Indian,,Resident,India,FQYJK8769X,,,,6980603856,bharat829@hotmail.com,,Madhya Pradesh,Bhopal,23.243488,77.385425,Healthcare,273370026,,Business Revenue,Low,N,N,N,N,N,26-08-2022,05-07-2024,14-04-1999,"Bhopal, Madhya Pradesh",Senior Managing Official,N,"78 Corporate Park, Bhopal, Madhya Pradesh - 513019","Plot 482, Industrial Area, Bhopal, Madhya Pradesh","379, Residential Colony, Bhopal, Madhya Pradesh",U79998ZT1990PTC817248,202870375310,Pallavi Chauhan
190578187547,Yash Nair,Individual,Individual,28-09-1978,Vivek Shah,Indian,Indian,Resident,India,HPYPL1461F,296239800513,XXXX-XXXX-4848,AADHAAR-4001XXXX8417,6486486390,yash.nair164@outlook.com,"111, MG Road, Hyderabad, Telangana - 654273",Telangana,Hyderabad,17.339432,78.447693,Consultant,171024,15,Rental Income,Low,N,N,N,N,N,24-01-2022,09-09-2024,,,,,,,,,,
496145792214,Anil Singh,Individual,Individual,28-08-1962,Aditya Deshmukh,Indian,Indian,Resident,India,QAFPH8037N,710705576010,XXXX-XXXX-0323,AADHAAR-3559XXXX7696,6108687963,anil.singh769@rediffmail.com,"327, MG Road, Nagpur, Maharashtra - 132465",Maharashtra,Nagpur,22.523056,80.253047,Self-Employed - Professional,485445,40,Business Income,Low,N,N,N,N,N,08-02-2020,21-04-2021,,,,,,,,,,
769795493152,Diamond Solutions,Non-Individual,Sole Proprietorship,,,Indian,,Resident,India,OYWFS6005Y,,,,7472991498,diamond214@hotmail.com,,Haryana,Faridabad,23.953866,80.593784,Trading,458191268,,Investment,Medium,N,N,N,N,N,09-03-1994,26-08-1994,10-05-1990,"Faridabad, Haryana",Senior Managing Official,N,"194 Corporate Park, Faridabad, Haryana - 599151","Plot 495, Industrial Area, Faridabad, Haryana","29, Residential Colony, Faridabad, Haryana",U60989MI2003PTC240970,431560876281,Pooja Bose
758495588042,Arjun Deshmukh,Individual,Individual,14-11-2003,Mohit Agarwal,Indian,Indian,Resident,India,EKWPY5443L,974249502283,XXXX-XXXX-3859,AADHAAR-7207XXXX0856,8900021338,arjun.deshmukh700@outlook.com,"98, Gandhi Nagar, Jodhpur, Rajasthan - 733375",Rajasthan,Jodhpur,24.718869,80.666267,Salaried - Government,366479,34,Investment Returns,Low,N,N,N,Y,N,07-05-2017,05-04-2018,,,,,,,,,,
571903961133,Excel Ventures,Non-Individual,Partnership,,,Indian,,Resident,India,VQNHO0589M,,,,6408615117,excel618@rediffmail.com,,Delhi,Dwarka,21.307402,81.632968,Retail,119117949,,Trading Profits,Medium,N,N,N,Y,N,03-07-2021,01-09-2022,08-08-2016,"Dwarka, Delhi",Shareholding > 25%,N,"30 Corporate Park, Dwarka, Delhi - 517406","Plot 269, Industrial Area, Dwarka, Delhi","851, Residential Colony, Dwarka, Delhi",U62501IR2007PTC196527,596023321522,Sapna Bhat
600764482870,National Technologies,Non-Individual,Public Limited,,,Indian,,Resident,India,EFPBN5513V,,,,9927958982,national907@gmail.com,,Delhi,Dwarka,18.862322,77.240161,Education,9247252,,Investment,Low,N,N,N,N,N,15-01-2012,17-07-2022,14-11-2008,"Dwarka, Delhi",Shareholding > 25%,N,"10 Corporate Park, Dwarka, Delhi - 169349","Plot 54, Industrial Area, Dwarka, Delhi","312, Residential Colony, Dwarka, Delhi",U61642GG1998PTC417714,623066462930,Ankit Joshi
881919336132,Golden Trading Co,Non-Individual,Partnership,,,Indian,,Resident,India,RNJJP8412S,,,,7506502152,golden761@gmail.com,,Delhi,Dwarka,17.150547,80.014284,Construction,186175877,,Trading Profits,Low,N,N,N,N,N,28-07-1995,14-05-2002,05-12-1993,"Dwarka, Delhi",Senior Managing Official,N,"38 Corporate Park, Dwarka, Delhi - 962777","Plot 336, Industrial Area, Dwarka, Delhi","161, Residential Colony, Dwarka, Delhi",U93777AE1991PTC544387,462352523085,Sandeep Mukherjee
211264222773,Sanjay Nair,Individual,Individual,03-07-1993,Sanjay Mukherjee,Indian,Indian,NRI,India,JSHPQ7573Q,486303774400,XXXX-XXXX-2093,AADHAAR-5927XXXX7727,7232864092,sanjay.nair611@yahoo.co.in,"205, Park Street, Ahmedabad, Gujarat - 968657",Gujarat,Ahmedabad,23.017764,72.56455,Student,173537,31,Rental Income,Low,N,N,N,N,N,14-12-2019,29-03-2021,,,,,,,,,,
240712930690,Diamond Trading Co,Non-Individual,Private Limited,,,Indian,,Resident,India,DWACL0160A,,,,6485718984,diamond371@rediffmail.com,,Haryana,Faridabad,18.64521,76.919704,Financial Services,327399673,,Business Revenue,Low,N,N,N,N,N,19-07-2019,13-06-2023,05-07-2017,"Faridabad, Haryana",Shareholding > 25%,Y,"150 Corporate Park, Faridabad, Haryana - 313937","Plot 122, Industrial Area, Faridabad, Haryana","190, Residential Colony, Faridabad, Haryana",U10622JP2010PTC926992,709453755261,Bhavna Joshi
926915788057,Akash Chatterjee,Individual,Individual,20-07-2014,Rajesh Pillai,Indian,Indian,Resident,India,VUOPC1152Q,993090404742,XXXX-XXXX-9086,AADHAAR-3970XXXX7268,9199140717,akash.chatterjee681@hotmail.com,"202, Gandhi Nagar, Vadodara, Gujarat - 597779",Gujarat,Vadodara,21.400917,75.866892,Salaried - IT,353330,0,Investment Returns,Low,N,N,Y,Y,N,29-06-2020,08-03-2021,,,,,,,,,,
410638796462,Nisha Sen,Individual,Individual,06-04-1969,Manoj Gupta,Indian,Indian,Resident,India,RMHPZ8367W,746820508237,XXXX-XXXX-6412,AADHAAR-5712XXXX4342,8890797125,nisha.sen633@hotmail.com,"181, Park Street, New Delhi, Delhi - 822867",Delhi,New Delhi,28.581505,77.210087,Lawyer,428434,16,Rental Income,Low,N,N,N,Y,N,05-04-2019,30-01-2023,,,,,,,,,,
315165482378,Kavita Sharma,Individual,Individual,08-03-1983,Pranav Pandey,Indian,Indian,Resident,India,GARPU2799G,233142003192,XXXX-XXXX-6735,AADHAAR-9550XXXX8449,8404001030,kavita.sharma487@rediffmail.com,"488, NH Highway, Ahmedabad, Gujarat - 376441",Gujarat,Ahmedabad,23.013031,72.570181,Retired,307722,29,Investment Returns,Low,N,N,N,N,N,10-05-2016,19-10-2024,,,,,,,,,,
172963815675,Kiran Mishra,Individual,Individual,05-09-1986,Sandeep Rao,Indian,Indian,Resident,India,WXHPD7779F,836369515338,XXXX-XXXX-0852,AADHAAR-9970XXXX8910,9053931096,kiran.mishra48@hotmail.com,"336, NH Highway, Rourkela, Odisha - 854914",Odisha,Rourkela,16.570054,73.593629,Salaried - Government,802909,36,Pension,Medium,N,N,N,N,N,12-01-2024,03-08-2024,,,,,,,,,,
914487389414,Bhavna Verma,Individual,Individual,10-06-2005,Pradeep Singh,Indian,Indian,Resident,India,WGWPF3200Y,825802673058,XXXX-XXXX-6761,AADHAAR-7518XXXX9154,7920598623,bhavna.verma349@hotmail.com,"254, Park Street, Vadodara, Gujarat - 290896",Gujarat,Vadodara,16.985662,80.053552,Agriculture,430403,10,Business Income,Low,N,N,N,N,Y,23-02-2023,05-10-2023,,,,,,,,,,
871009575518,Ravi Rao,Individual,Individual,03-09-1998,Varun Agarwal,Indian,Indian,Resident,India,YTVPM4915B,866346613373,XXXX-XXXX-6809,AADHAAR-2222XXXX7730,8964776917,ravi.rao52@gmail.com,"75, MG Road, Hubli, Karnataka - 504108",Karnataka,Hubli,17.171948,79.479822,Freelancer,1813464,22,Rental Income,Medium,N,N,N,N,Y,06-02-2016,18-10-2017,,,,,,,,,,
654614544041,Asha Pillai,Individual,Individual,03-07-2006,Rajesh Das,Indian,Indian,Resident,India,IYHPM2166L,336328774073,XXXX-XXXX-9219,AADHAAR-3789XXXX7302,7468740244,asha.pillai771@outlook.com,"322, NH Highway, Udaipur, Rajasthan - 148762",Rajasthan,Udaipur,20.458796,79.040876,Salaried - Government,432447,36,Family Support,Low,N,N,N,N,N,08-10-2020,29-06-2021,,,,,,,,,,
780821904946,Suresh Reddy,Individual,Individual,02-03-1990,Nikhil Joshi,Indian,Indian,Resident,India,EABPK8137V,670581946329,XXXX-XXXX-3530,AADHAAR-3060XXXX6686,8163918479,suresh.reddy158@yahoo.co.in,"178, Ring Road, Indore, Madhya Pradesh - 770437",Madhya Pradesh,Indore,22.57243,76.583598,Salaried - Banking,9556282,3,Family Support,High,N,N,N,N,N,27-04-2023,11-07-2023,,,,,,,,,,
126080076588,Shri Imports,Non-Individual,Trust,,,Indian,,Resident,India,QYDBE1334P,,,,6882798938,shri591@rediffmail.com,,Delhi,New Delhi,28.644705,77.243373,Import/Export,399395566,,Government Grant,Low,N,N,N,N,N,06-01-2024,01-08-2024,13-08-2017,"New Delhi, Delhi",Control through other means,N,"112 Corporate Park, New Delhi, Delhi - 285035","Plot 193, Industrial Area, New Delhi, Delhi","756, Residential Colony, New Delhi, Delhi",U14345QH1994PTC174274,109633660296,Rashmi Verma
951254553637,National Holdings,Non-Individual,Public Limited,,,Indian,,Resident,India,YXVFW4330O,,,,9259191712,national130@gmail.com,,Maharashtra,Pune,18.553899,73.844574,Pharmaceuticals,387822227,,Government Grant,Medium,N,N,N,N,N,23-01-2018,15-10-2024,18-02-1991,"Pune, Maharashtra",Control through other means,N,"104 Corporate Park, Pune, Maharashtra - 619725","Plot 274, Industrial Area, Pune, Maharashtra","17, Residential Colony, Pune, Maharashtra",U55697OI2024PTC538362,323140790949,Rashmi Rao
307037562543,Arjun Mukherjee,Individual,Individual,18-06-1977,Gaurav Pillai,Indian,Indian,Resident,India,MKXPK2823I,947959010338,XXXX-XXXX-1160,AADHAAR-8382XXXX4306,6995574112,arjun.mukherjee558@outlook.com,"457, Ring Road, Saket, Delhi - 236472",Delhi,Saket,23.888532,77.303438,Self-Employed - Retail,235308,36,Investment Returns,Low,N,N,N,Y,N,31-01-2023,22-05-2024,,,,,,,,,,
783114161319,United Imports,Non-Individual,Society,,,Indian,,Resident,India,UFWHH4141U,,,,8159346454,united39@yahoo.co.in,,Uttar Pradesh,Lucknow,26.862897,80.90719,Pharmaceuticals,381878080,,Investment,High,N,N,N,N,N,27-10-2020,11-06-2021,02-09-2003,"Lucknow, Uttar Pradesh",Senior Managing Official,N,"77 Corporate Park, Lucknow, Uttar Pradesh - 768178","Plot 410, Industrial Area, Lucknow, Uttar Pradesh","323, Residential Colony, Lucknow, Uttar Pradesh",U56127RU2024PTC455984,186927047836,Ashish Yadav
670111697846,Excel Industries,Non-Individual,HUF,,,Indian,,Resident,India,HHATY3208W,,,,7859487104,excel112@outlook.com,,West Bengal,Kolkata,22.561906,88.364233,Education,323606907,,Trading Profits,Low,N,N,N,N,N,04-11-2010,09-10-2023,23-01-2009,"Kolkata, West Bengal",Shareholding > 25%,N,"151 Corporate Park, Kolkata, West Bengal - 756898","Plot 366, Industrial Area, Kolkata, West Bengal","201, Residential Colony, Kolkata, West Bengal",U35535NQ2022PTC372296,864119411537,Pradeep Pillai
997255239475,Rashmi Das,Individual,Individual,14-03-1997,Varun Joshi,Indian,Indian,Resident,India,MEOPS1999S,726249538044,XXXX-XXXX-9416,AADHAAR-3041XXXX2925,6421840538,rashmi.das510@outlook.com,"198, Park Street, Chandigarh, Punjab - 787586",Punjab,Chandigarh,30.727599,76.799632,Consultant,281061,23,Investment Returns,Low,N,N,N,Y,Y,24-03-2017,17-09-2024,,,,,,,,,,
828789989856,Shruti Nair,Individual,Individual,11-01-1963,Ashish Singh,Indian,Indian,Resident,India,JPQPS0724D,453634466650,XXXX-XXXX-0872,AADHAAR-5966XXXX1346,9887471152,shruti.nair5@rediffmail.com,"378, Nehru Place, Surat, Gujarat - 455648",Gujarat,Surat,15.815703,81.166403,Consultant,87816595,14,Investment Returns,Low,N,Y,N,N,N,06-07-2020,10-01-2022,,,,,,,,,,
531020351528,Anil Patel,Individual,Individual,18-11-1989,Suresh Nair,Indian,Indian,Resident,India,NTNPE1242V,816110204041,XXXX-XXXX-3611,AADHAAR-4582XXXX8413,6574406796,anil.patel371@rediffmail.com,"479, Ring Road, Nagpur, Maharashtra - 931166",Maharashtra,Nagpur,24.414556,73.307872,Retired,463242,19,Agriculture Income,Low,N,N,N,Y,N,03-07-2019,21-10-2020,,,,,,,,,,
640546531197,Nikhil Gupta,Individual,Individual,25-02-1995,Yash Chauhan,Indian,Indian,Resident,India,YTGPD5136Y,532495841645,XXXX-XXXX-7897,AADHAAR-5303XXXX4458,6476494853,nikhil.gupta136@outlook.com,"164, Station Road, Jalandhar, Punjab - 899447",Punjab,Jalandhar,25.317651,81.504363,Doctor,482031,18,Salary,Low,N,N,N,Y,N,29-03-2024,04-12-2024,,,,,,,,,,
179449144076,Shruti Reddy,Individual,Individual,02-05-1993,Akash Rao,Indian,Indian,Resident,India,NQJPI6172U,583867854681,XXXX-XXXX-2091,AADHAAR-5085XXXX3992,9365073304,shruti.reddy194@yahoo.co.in,"421, MG Road, Dwarka, Delhi - 494214",Delhi,Dwarka,23.743636,80.521162,Salaried - IT,224316,36,Agriculture Income,Low,N,N,N,N,N,11-08-2022,10-09-2023,,,,,,,,,,
771022349562,Excel Services,Non-Individual,Private Limited,,,Indian,,Resident,India,YWGLS5684C,,,,7903685477,excel618@hotmail.com,,Bihar,Bhagalpur,23.618855,79.516213,Trading,208225194,,Trading Profits,Low,N,N,N,Y,N,12-10-2018,09-03-2019,22-11-2011,"Bhagalpur, Bihar",Control through other means,N,"54 Corporate Park, Bhagalpur, Bihar - 241042","Plot 116, Industrial Area, Bhagalpur, Bihar","779, Residential Colony, Bhagalpur, Bihar",U60751VC1991PTC702982,650119460855,Naveen Joshi
724944968403,Shruti Nair,Individual,Individual,06-07-1971,Anil Rao,Indian,Indian,Resident,India,OGHPQ0578K,418926222446,XXXX-XXXX-5267,AADHAAR-9548XXXX0224,6730744480,shruti.nair460@gmail.com,"274, MG Road, Noida, Uttar Pradesh - 785370",Uttar Pradesh,Noida,23.091951,74.145234,Business Owner,16353918,28,Investment Returns,Medium,N,Y,N,N,N,15-06-2016,28-09-2022,,,,,,,,,,
704315312815,Diamond Holdings,Non-Individual,Sole Proprietorship,,,Indian,,Resident,India,YPQHG5635Z,,,,9994960851,diamond347@outlook.com,,Gujarat,Surat,21.384783,79.304206,Textiles,281588569,,Government Grant,High,N,N,N,N,N,25-07-2013,29-05-2014,09-03-2004,"Surat, Gujarat",Control through other means,N,"189 Corporate Park, Surat, Gujarat - 375405","Plot 141, Industrial Area, Surat, Gujarat","565, Residential Colony, Surat, Gujarat",U54402UO1995PTC446347,652167666897,Rohan Patel
435275756936,Nikhil Sharma,Individual,Individual,08-11-1964,Rohan Verma,Indian,Indian,NRI,India,HPEPZ9759M,509572156018,XXXX-XXXX-7235,AADHAAR-2704XXXX5579,8716330091,nikhil.sharma886@yahoo.co.in,"176, Park Street, Jodhpur, Rajasthan - 409973",Rajasthan,Jodhpur,18.838889,82.54972,Salaried - IT,418876,15,Business Income,Low,N,N,N,Y,N,18-09-2020,17-04-2024,,,,,,,,,,
376960224035,Pallavi Das,Individual,Individual,30-08-1963,Manoj Iyer,Indian,Indian,Resident,India,GGQPV9840I,204247870645,XXXX-XXXX-6197,AADHAAR-2662XXXX7754,9892087511,pallavi.das567@gmail.com,"67, Ring Road, Puri, Odisha - 131737",Odisha,Puri,21.329745,74.626632,Self-Employed - Retail,1849790,30,Rental Income,Medium,N,N,N,N,N,09-02-2015,09-06-2019,,,,,,,,,,
121874504986,Komal Shah,Individual,Individual,02-02-1998,Vivek Pandey,Indian,Indian,Resident,India,DQAPU8530J,493185362290,XXXX-XXXX-4723,AADHAAR-3770XXXX0121,6285155904,komal.shah908@gmail.com,"263, Park Street, Patna, Bihar - 122862",Bihar,Patna,25.639837,85.182055,Self-Employed - Retail,282090,4,Agriculture Income,Low,N,N,N,N,N,22-05-2020,07-04-2021,,,,,,,,,,
341649002828,Sneha Pandey,Individual,Individual,12-10-1984,Gaurav Pandey,Indian,Indian,NRI,India,EYOPO0967G,406517657669,XXXX-XXXX-7333,AADHAAR-6603XXXX5781,6918832063,sneha.pandey942@hotmail.com,"267, Nehru Place, Howrah, West Bengal - 769994",West Bengal,Howrah,17.881499,73.260765,Lawyer,335180,38,Family Support,Low,N,N,N,Y,N,18-10-2021,02-11-2021,,,,,,,,,,
562416794579,Premier Technologies,Non-Individual,Society,,,Indian,,Resident,India,SIEHS7773O,,,,6759375299,premier789@outlook.com,,Karnataka,Hubli,21.308883,73.24152,Healthcare,346067363,,Donations,High,N,N,N,N,N,05-11-2010,07-05-2017,30-06-2006,"Hubli, Karnataka",Control through other means,N,"37 Corporate Park, Hubli, Karnataka - 986889","Plot 441, Industrial Area, Hubli, Karnataka","860, Residential Colony, Hubli, Karnataka",U70632WD2010PTC507714,857748234754,Naveen Chauhan
443889650614,Premier Ventures,Non-Individual,Trust,,,Indian,,Resident,India,OKMBL5227E,,,,8138321789,premier284@hotmail.com,,Rajasthan,Kota,16.343429,74.465451,Retail,451522311,,Donations,Low,N,N,N,N,N,08-03-2016,24-03-2017,10-03-2008,"Kota, Rajasthan",Control through other means,Y,"194 Corporate Park, Kota, Rajasthan - 986137","Plot 72, Industrial Area, Kota, Rajasthan","85, Residential Colony, Kota, Rajasthan",U67488WS2016PTC423239,699279664106,Akash Shah
691101402076,Deepak Das,Individual,Individual,10-02-2004,Pranav Gupta,Indian,Indian,Resident,India,LNAPM2311T,842053861102,XXXX-XXXX-3614,AADHAAR-6248XXXX4443,6728481871,deepak.das99@rediffmail.com,"339, MG Road, Agra, Uttar Pradesh - 727751",Uttar Pradesh,Agra,21.963881,80.70994,Agriculture,457359,33,Rental Income,Low,N,N,N,N,N,16-12-2015,21-11-2018,,,,,,,,,,
767242326645,Tushar Verma,Individual,Individual,07-04-1962,Mohit Malhotra,Indian,Indian,Resident,India,CPJPV5178E,416071876798,XXXX-XXXX-8148,AADHAAR-6495XXXX3079,8331697641,tushar.verma225@yahoo.co.in,"464, Station Road, Kochi, Kerala - 643034",Kerala,Kochi,9.918702,76.231663,Retired,697518,28,Rental Income,High,N,N,N,N,N,19-08-2016,04-12-2020,,,,,,,,,,
423609741659,Sanjay Agarwal,Individual,Individual,13-04-1983,Akash Banerjee,Indian,Indian,Resident,India,QFHPK2942B,318760570605,XXXX-XXXX-5606,AADHAAR-8557XXXX2027,9246042136,sanjay.agarwal725@rediffmail.com,"418, Nehru Place, Jaipur, Rajasthan - 641967",Rajasthan,Jaipur,26.903424,75.811839,Salaried - IT,59588547,39,Pension,Low,N,Y,N,Y,N,21-12-2021,09-11-2023,,,,,,,,,,
971143881381,Komal Banerjee,Individual,Individual,04-10-1969,Sachin Gupta,Indian,Indian,Resident,Other,DJTPC1960L,987767315853,XXXX-XXXX-2160,AADHAAR-6324XXXX5404,8902805899,komal.banerjee613@outlook.com,"266, Gandhi Nagar, Jaipur, Rajasthan - 708721",Rajasthan,Jaipur,26.892493,75.746407,Doctor,179432,1,Rental Income,Low,N,N,N,N,N,07-04-2023,27-01-2025,,,,,,,,,,
559190688950,Mohit Deshmukh,Individual,Individual,27-12-2005,Arjun Yadav,Indian,Indian,Resident,India,JJDPC0560J,276166141439,XXXX-XXXX-5377,AADHAAR-7443XXXX0583,6240692201,mohit.deshmukh240@gmail.com,"55, Nehru Place, Bhubaneswar, Odisha - 795237",Odisha,Bhubaneswar,20.314756,85.866968,Self-Employed - Retail,294071,3,Pension,Low,N,N,N,Y,Y,01-10-2021,14-05-2024,,,,,,,,,,
880080167967,Harsh Kumar,Individual,Individual,28-07-1981,Pranav Rao,Indian,Indian,Resident,India,CQKPZ4035I,648042970769,XXXX-XXXX-2906,AADHAAR-9363XXXX5775,9363668587,harsh.kumar922@hotmail.com,"194, Ring Road, Chennai, Tamil Nadu - 592582",Tamil Nadu,Chennai,13.039322,80.303308,Retired,2109273,32,Business Income,Medium,N,N,N,Y,N,16-06-2019,11-09-2021,,,,,,,,,,
646257966137,Vivek Mukherjee,Individual,Individual,30-11-1964,Gaurav Sharma,Indian,Indian,Resident,India,TCIPB2485D,245456357844,XXXX-XXXX-3772,AADHAAR-7039XXXX5682,8760947504,vivek.mukherjee496@rediffmail.com,"136, Nehru Place, Lucknow, Uttar Pradesh - 927261",Uttar Pradesh,Lucknow,26.867549,80.955792,Student,2405601,29,Agriculture Income,Medium,N,N,N,Y,N,31-01-2017,11-08-2022,,,,,,,,,,
639551169217,Lata Pandey,Individual,Individual,29-12-1979,Sachin Iyer,Indian,Indian,Resident,Other,JCFPC4384A,527308371962,XXXX-XXXX-4597,AADHAAR-2607XXXX0189,7635931934,lata.pandey121@yahoo.co.in,"442, Ring Road, Salem, Tamil Nadu - 419496",Tamil Nadu,Salem,17.649923,81.391765,Freelancer,1884238,30,Agriculture Income,Medium,N,N,N,Y,N,07-05-2016,22-08-2020,,,,,,,,,,
347474611325,Star Ventures,Non-Individual,Society,,,Indian,,Resident,India,TZHJI5580V,,,,6075160679,star248@gmail.com,,Madhya Pradesh,Gwalior,19.710083,74.069908,Textiles,98634441,,Business Revenue,Low,N,N,N,N,N,16-12-2021,24-05-2024,09-09-1996,"Gwalior, Madhya Pradesh",Shareholding > 25%,N,"112 Corporate Park, Gwalior, Madhya Pradesh - 728774","Plot 291, Industrial Area, Gwalior, Madhya Pradesh","918, Residential Colony, Gwalior, Madhya Pradesh",U57026WG1993PTC509297,860989572021,Rahul Pillai
683456037496,Bhavna Reddy,Individual,Individual,04-05-2000,Ravi Chauhan,Indian,Indian,Resident,Other,PXVPK7108Y,263165270570,XXXX-XXXX-3232,AADHAAR-6984XXXX1282,8281471065,bhavna.reddy982@outlook.com,"465, Station Road, Noida, Uttar Pradesh - 921501",Uttar Pradesh,Noida,24.156957,74.338824,Lawyer,393369,15,Salary,Low,N,N,N,N,N,24-01-2023,04-01-2025,,,,,,,,,,
579780904749,Pioneer Infra,Non-Individual,Partnership,,,Indian,,Resident,India,XUYHW8985A,,,,6507802522,pioneer641@hotmail.com,,Punjab,Amritsar,25.450477,76.827939,Retail,424577730,,Donations,Low,N,N,N,N,N,08-03-2014,14-10-2021,13-07-2009,"Amritsar, Punjab",Control through other means,N,"34 Corporate Park, Amritsar, Punjab - 791332","Plot 360, Industrial Area, Amritsar, Punjab","744, Residential Colony, Amritsar, Punjab",U68858YS2010PTC593081,209476268634,Naveen Iyer
812262435761,Sandeep Bose,Individual,Individual,05-09-1975,Aditya Mehta,Indian,Indian,Resident,India,BAAPL3724G,616469112677,XXXX-XXXX-4017,AADHAAR-3686XXXX9278,8556334451,sandeep.bose842@gmail.com,"462, Ring Road, Kota, Rajasthan - 716780",Rajasthan,Kota,17.779421,82.805455,Student,5573570,12,Salary,High,N,N,N,N,N,28-02-2024,19-05-2024,,,,,,,,,,
451204800625,Aditya Kumar,Individual,Individual,21-12-1985,Sandeep Chauhan,Indian,Indian,Resident,India,FEPPN4891T,737703908612,XXXX-XXXX-7575,AADHAAR-5495XXXX6378,8410594162,aditya.kumar470@rediffmail.com,"93, Gandhi Nagar, Vadodara, Gujarat - 623445",Gujarat,Vadodara,21.933784,82.774931,Consultant,872202,5,Business Income,Medium,N,N,N,N,Y,09-06-2020,12-05-2022,,,,,,,,,,
570572952771,Ankit Patel,Individual,Individual,17-10-2000,Suresh Mehta,Indian,Indian,Resident,India,XBJPC9713A,669085250896,XXXX-XXXX-2585,AADHAAR-7188XXXX5514,8742501914,ankit.patel985@gmail.com,"44, Nehru Place, Hyderabad, Telangana - 855728",Telangana,Hyderabad,17.377569,78.505642,Retired,330107,7,Business Income,Low,N,N,N,N,Y,22-06-2021,23-05-2022,,,,,,,,,,
357643897559,Global Logistics,Non-Individual,Sole Proprietorship,,,Indian,,Resident,India,JQYJT5737T,,,,8271825503,global267@rediffmail.com,,West Bengal,Durgapur,21.970907,76.18615,Trading,114925695,,Donations,Low,N,N,N,N,N,14-01-1995,08-05-2023,07-12-1992,"Durgapur, West Bengal",Shareholding > 25%,N,"139 Corporate Park, Durgapur, West Bengal - 934677","Plot 25, Industrial Area, Durgapur, West Bengal","253, Residential Colony, Durgapur, West Bengal",U88900DU1999PTC232198,859174875406,Meera Reddy
149337598848,Pallavi Malhotra,Individual,Individual,03-04-1983,Sanjay Mishra,Indian,Indian,Resident,India,ZZMPX5497Z,559876697067,XXXX-XXXX-0457,AADHAAR-8355XXXX1904,8270298852,pallavi.malhotra421@outlook.com,"264, Gandhi Nagar, Saket, Delhi - 724970",Delhi,Saket,18.709209,81.718895,Freelancer,82302748,5,Rental Income,Low,N,Y,N,N,N,23-11-2019,24-12-2023,,,,,,,,,,
134243871524,Rahul Shah,Individual,Individual,04-09-2001,Kiran Shah,Indian,Indian,Resident,India,YFAPI3935H,382715318002,XXXX-XXXX-1888,AADHAAR-5530XXXX4715,6148135082,rahul.shah467@rediffmail.com,"53, MG Road, Patna, Bihar - 420716",Bihar,Patna,25.590924,85.173226,Business Owner,45455859,30,Rental Income,Medium,N,Y,N,N,N,22-03-2021,08-08-2022,,,,,,,,,,
107167515836,Suresh Singh,Individual,Individual,11-03-1975,Nikhil Patel,Indian,Indian,Resident,India,UMJPQ7022H,630759232698,XXXX-XXXX-4805,AADHAAR-5821XXXX2005,7520026339,suresh.singh342@outlook.com,"130, Station Road, Patna, Bihar - 685522",Bihar,Patna,25.643179,85.185668,Salaried - Government,1059060,39,Family Support,Medium,N,N,N,Y,N,18-10-2015,13-12-2022,,,,,,,,,,
493049218308,Arjun Banerjee,Individual,Individual,19-07-1999,Sanjay Deshmukh,Indian,Indian,Resident,India,YYHPC5152L,357326915145,XXXX-XXXX-2621,AADHAAR-5100XXXX9017,7338438275,arjun.banerjee749@rediffmail.com,"303, NH Highway, Kota, Rajasthan - 955026",Rajasthan,Kota,18.537808,73.85321,Business Owner,417947,17,Agriculture Income,Low,N,N,N,Y,N,16-12-2017,06-11-2019,,,,,,,,,,
456086338297,Sonal Bhat,Individual,Individual,19-01-1973,Vikram Mukherjee,Indian,Indian,Resident,India,LYYPS9111Z,637859070204,XXXX-XXXX-3040,AADHAAR-9445XXXX9065,6923673816,sonal.bhat855@gmail.com,"419, Nehru Place, Karimnagar, Telangana - 785473",Telangana,Karimnagar,24.609179,81.032133,Doctor,1056552,40,Investment Returns,High,N,N,N,N,N,20-05-2022,20-09-2024,,,,,,,,,,
661152865428,Sapna Kapoor,Individual,Individual,29-11-2002,Rajesh Tiwari,Indian,Indian,Resident,India,QCRPA2217X,981908454798,XXXX-XXXX-8576,AADHAAR-4194XXXX8441,7980300187,sapna.kapoor373@gmail.com,"448, Ring Road, Puri, Odisha - 499456",Odisha,Puri,20.851527,80.969256,Self-Employed - Retail,93747483,38,Family Support,Medium,N,Y,N,Y,N,02-04-2022,13-10-2024,,,,,,,,,,
140369584483,Bhavna Gupta,Individual,Individual,27-08-1991,Sandeep Pillai,Indian,Indian,Resident,India,ABYPP1253Z,913452832365,XXXX-XXXX-8464,AADHAAR-7170XXXX5894,8266826200,bhavna.gupta573@yahoo.co.in,"58, MG Road, Gaya, Bihar - 349201",Bihar,Gaya,20.091959,77.673685,Salaried - IT,326734,27,Salary,Low,N,N,N,N,Y,27-04-2021,03-09-2024,,,,,,,,,,
916133204722,Tanvi Shah,Individual,Individual,31-07-1966,Aditya Sen,Indian,Indian,Resident,India,KZHPO3055B,577657952567,XXXX-XXXX-8873,AADHAAR-4932XXXX4218,7497621091,tanvi.shah860@outlook.com,"259, Park Street, Dwarka, Delhi - 967462",Delhi,Dwarka,18.115294,80.015056,Student,517912,12,Pension,Medium,N,N,N,N,N,15-08-2017,02-12-2018,,,,,,,,,,
960694277319,Naveen Iyer,Individual,Individual,23-05-1987,Aditya Pillai,Indian,Indian,Resident,India,QTLPW0065B,602950884275,XXXX-XXXX-4713,AADHAAR-6283XXXX5167,8479157108,naveen.iyer366@outlook.com,"370, Nehru Place, Chennai, Tamil Nadu - 922783",Tamil Nadu,Chennai,13.090561,80.286221,Doctor,950818,13,Family Support,Medium,N,N,N,Y,Y,30-08-2023,17-02-2024,,,,,,,,,,
639206937871,Ankit Sen,Individual,Individual,22-10-2011,Tushar Agarwal,Indian,Indian,Resident,India,FJKPW5820X,579620399280,XXXX-XXXX-7648,AADHAAR-7937XXXX8914,6241734156,ankit.sen470@rediffmail.com,"462, Ring Road, Varanasi, Uttar Pradesh - 280581",Uttar Pradesh,Varanasi,21.635012,82.852706,Salaried - Banking,834885,0,Pension,Medium,N,N,Y,Y,N,13-05-2020,13-10-2021,,,,,,,,,,
474849157610,Apex Capital,Non-Individual,Society,,,Indian,,Resident,India,CFRGN6469X,,,,9901127816,apex616@rediffmail.com,,Kerala,Kochi,9.962204,76.246356,Construction,388873966,,Business Revenue,Medium,N,N,N,N,N,12-11-2020,10-12-2024,08-10-1997,"Kochi, Kerala",Senior Managing Official,N,"3 Corporate Park, Kochi, Kerala - 688989","Plot 99, Industrial Area, Kochi, Kerala","967, Residential Colony, Kochi, Kerala",U46149FT1990PTC902425,629630927376,Meera Mukherjee
338594807568,Premier Technologies,Non-Individual,Sole Proprietorship,,,Indian,,Resident,India,DBPLE7274U,,,,8702435318,premier164@yahoo.co.in,,Punjab,Jalandhar,20.732241,78.952845,Textiles,400975024,,Donations,Low,N,N,N,N,N,22-03-2021,05-12-2024,22-03-1995,"Jalandhar, Punjab",Shareholding > 25%,N,"142 Corporate Park, Jalandhar, Punjab - 664134","Plot 339, Industrial Area, Jalandhar, Punjab","720, Residential Colony, Jalandhar, Punjab",U54431VS2017PTC156377,708336158507,Pranav Pandey
203214851205,Rohan Bhat,Individual,Individual,07-06-1996,Rahul Bose,Indian,Indian,Resident,India,YEPPU6391B,822494253185,XXXX-XXXX-9066,AADHAAR-6299XXXX6129,9355985803,rohan.bhat543@yahoo.co.in,"415, Ring Road, Jodhpur, Rajasthan - 908840",Rajasthan,Jodhpur,25.228269,77.518446,Salaried - IT,1781320,21,Business Income,Medium,N,N,N,Y,N,08-12-2021,07-07-2022,,,,,,,,,,
719943815338,Om Logistics,Non-Individual,LLP,,,Indian,,Resident,India,JTLLL6685U,,,,6385809709,om995@outlook.com,,West Bengal,Siliguri,18.583829,80.416202,Construction,285078909,,Trading Profits,Low,N,N,N,N,N,09-06-2017,04-12-2019,28-06-1993,"Siliguri, West Bengal",Control through other means,N,"83 Corporate Park, Siliguri, West Bengal - 855924","Plot 354, Industrial Area, Siliguri, West Bengal","233, Residential Colony, Siliguri, West Bengal",U16111XE1998PTC916329,498694787223,Anil Agarwal
779042879979,Aditya Rao,Individual,Individual,13-06-1984,Rahul Malhotra,Indian,Indian,Resident,India,NHCPQ1693S,285137338654,XXXX-XXXX-8799,AADHAAR-9853XXXX7539,9404611568,aditya.rao398@hotmail.com,"345, Gandhi Nagar, Jabalpur, Madhya Pradesh - 364060",Madhya Pradesh,Jabalpur,24.454861,82.656154,Agriculture,7536780,1,Rental Income,High,N,N,N,N,N,19-11-2016,18-11-2017,,,,,,,,,,
673700259366,Pradeep Gupta,Individual,Individual,22-07-1976,Rahul Das,Indian,Indian,Resident,India,XRXPL4450B,419323703524,XXXX-XXXX-4188,AADHAAR-5199XXXX4199,6788436476,pradeep.gupta235@outlook.com,"43, MG Road, Agra, Uttar Pradesh - 802851",Uttar Pradesh,Agra,17.596661,77.18079,Agriculture,1924895,25,Salary,Medium,N,N,N,N,N,12-10-2020,28-02-2025,,,,,,,,,,
593391282142,Rashmi Bhat,Individual,Individual,22-07-1982,Sandeep Rao,Indian,Indian,Resident,India,LLEPL6116M,550562552663,XXXX-XXXX-3455,AADHAAR-8648XXXX3428,9573257271,rashmi.bhat292@rediffmail.com,"144, NH Highway, Saket, Delhi - 231637",Delhi,Saket,19.486611,73.927963,Retired,2359027,29,Agriculture Income,Medium,N,N,N,N,Y,02-12-2023,26-09-2024,,,,,,,,,,
705247466399,Mamta Banerjee,Individual,Individual,25-08-2001,Tushar Pillai,Indian,Indian,Resident,India,ZQMPK2019M,662043094425,XXXX-XXXX-7457,AADHAAR-4425XXXX8896,7302797999,mamta.banerjee570@gmail.com,"468, Ring Road, Kolkata, West Bengal - 741037",West Bengal,Kolkata,22.589782,88.358682,Lawyer,550290,21,Family Support,Medium,N,N,N,N,N,02-04-2016,25-03-2019,,,,,,,,,,
499032027840,Lata Sharma,Individual,Individual,06-07-2002,Amit Sharma,Indian,Indian,Resident,India,MOSPS3731L,627431076863,XXXX-XXXX-4410,AADHAAR-2197XXXX2127,9766000591,lata.sharma730@hotmail.com,"146, Gandhi Nagar, Mumbai, Maharashtra - 787984",Maharashtra,Mumbai,19.095317,72.853962,Business Owner,198995,28,Rental Income,Low,N,N,N,N,N,12-02-2024,06-10-2024,,,,,,,,,,
707584224574,Ankit Chauhan,Individual,Individual,05-12-1990,Ravi Nair,Indian,Indian,NRI,India,QCVPE6253H,422656786093,XXXX-XXXX-5150,AADHAAR-2975XXXX3460,6609740289,ankit.chauhan359@rediffmail.com,"389, NH Highway, Hubli, Karnataka - 674668",Karnataka,Hubli,20.288979,80.964323,Salaried - Banking,360163,31,Pension,Low,N,N,N,N,N,08-07-2023,16-08-2023,,,,,,,,,,
537830271706,Pradeep Reddy,Individual,Individual,12-10-1997,Yash Mehta,Indian,Indian,Resident,India,DUCPT8185R,487660283390,XXXX-XXXX-3041,AADHAAR-6760XXXX8774,8097180426,pradeep.reddy850@rediffmail.com,"80, MG Road, Gwalior, Madhya Pradesh - 848624",Madhya Pradesh,Gwalior,18.343248,74.788951,Retired,269286,27,Rental Income,Low,N,N,N,Y,Y,08-03-2021,26-08-2022,,,,,,,,,,
116079564765,Aditi Mishra,Individual,Individual,20-05-1960,Yash Gupta,Indian,Indian,Resident,India,VUBPT9617Y,534398318270,XXXX-XXXX-8176,AADHAAR-6484XXXX1404,7366798520,aditi.mishra935@outlook.com,"269, Nehru Place, Kota, Rajasthan - 481375",Rajasthan,Kota,23.538913,75.808421,Doctor,498530,23,Business Income,Low,N,N,N,N,N,17-10-2016,21-09-2019,,,,,,,,,,
277926365565,Shri Trading Co,Non-Individual,Trust,,,Indian,,Resident,India,ANKJB7733C,,,,7468984940,shri47@yahoo.co.in,,West Bengal,Howrah,22.584207,81.738502,Logistics,362949953,,Government Grant,Low,N,N,N,N,N,27-03-2024,05-08-2024,17-03-2021,"Howrah, West Bengal",Control through other means,N,"184 Corporate Park, Howrah, West Bengal - 430928","Plot 173, Industrial Area, Howrah, West Bengal","201, Residential Colony, Howrah, West Bengal",U26938TC1999PTC529342,305583651273,Divya Nair
809589624715,Rekha Kumar,Individual,Individual,21-03-2001,Suresh Chauhan,Indian,Indian,Resident,India,IEGPS4826L,802317069649,XXXX-XXXX-2653,AADHAAR-8427XXXX4120,8807229856,rekha.kumar193@yahoo.co.in,"65, Nehru Place, Jodhpur, Rajasthan - 745172",Rajasthan,Jodhpur,16.415252,75.413126,Salaried - IT,380591,27,Salary,Low,N,N,N,N,N,14-05-2021,21-09-2023,,,,,,,,,,
806246441484,Kiran Iyer,Individual,Individual,21-12-1978,Ankit Singh,Indian,Indian,Resident,India,DXRPQ1556V,444405679682,XXXX-XXXX-0917,AADHAAR-9538XXXX2237,9301668883,kiran.iyer314@gmail.com,"62, MG Road, Bhopal, Madhya Pradesh - 555605",Madhya Pradesh,Bhopal,23.252015,77.452971,Student,245662,27,Salary,Low,N,N,N,N,Y,26-10-2022,28-10-2023,,,,,,,,,,
548036952096,Yash Shah,Individual,Individual,12-03-1962,Pranav Yadav,Indian,Indian,Resident,India,DKGPC8724D,918004172109,XXXX-XXXX-1121,AADHAAR-2181XXXX5944,6649480838,yash.shah732@rediffmail.com,"324, Gandhi Nagar, Muzaffarpur, Bihar - 885906",Bihar,Muzaffarpur,23.405836,79.882965,Self-Employed - Retail,311506,33,Salary,Low,N,N,N,Y,N,03-12-2020,29-05-2022,,,,,,,,,,
868035001433,Pioneer Associates,Non-Individual,Sole Proprietorship,,,Indian,,Resident,India,AUZHW2276U,,,,6128764547,pioneer427@rediffmail.com,,Kerala,Thiruvananthapuram,19.940918,73.588416,Construction,365592083,,Donations,Medium,N,N,N,N,N,17-01-2010,20-11-2016,05-06-2000,"Thiruvananthapuram, Kerala",Control through other means,N,"111 Corporate Park, Thiruvananthapuram, Kerala - 357664","Plot 100, Industrial Area, Thiruvananthapuram, Kerala","865, Residential Colony, Thiruvananthapuram, Kerala",U43337BB2006PTC798659,365709934829,Pooja Agarwal
500452431448,Sapna Malhotra,Individual,Individual,25-07-1969,Amit Chatterjee,Indian,Indian,Resident,Other,HOTPM8225Z,536683008109,XXXX-XXXX-7479,AADHAAR-6553XXXX6746,9221416607,sapna.malhotra92@rediffmail.com,"435, MG Road, Hyderabad, Telangana - 390399",Telangana,Hyderabad,17.415515,78.497702,Doctor,300993,23,Investment Returns,Low,N,N,N,N,N,31-03-2018,23-02-2020,,,,,,,,,,
348195837372,Amit Bhat,Individual,Individual,23-02-1993,Harsh Chatterjee,Indian,Indian,Resident,India,FPZPR6661V,654161854595,XXXX-XXXX-1109,AADHAAR-9408XXXX9188,9748099224,amit.bhat201@yahoo.co.in,"108, NH Highway, Indore, Madhya Pradesh - 766821",Madhya Pradesh,Indore,23.791099,81.062435,Consultant,1725112,39,Family Support,Medium,N,N,N,Y,Y,25-10-2020,27-05-2022,,,,,,,,,,
204710673452,Star Ventures,Non-Individual,HUF,,,Indian,,Resident,India,XEGJD0514T,,,,6313060475,star880@outlook.com,,West Bengal,Siliguri,22.62236,80.186118,Agriculture,469571945,,Trading Profits,Low,N,N,N,N,N,25-08-2019,11-07-2021,13-01-2014,"Siliguri, West Bengal",Shareholding > 25%,Y,"15 Corporate Park, Siliguri, West Bengal - 632636","Plot 36, Industrial Area, Siliguri, West Bengal","511, Residential Colony, Siliguri, West Bengal",U24595ME1995PTC865023,368031893990,Akash Rao
474299738964,Rahul Tiwari,Individual,Individual,06-03-1966,Varun Mukherjee,Indian,Indian,Resident,India,GLMPV3531U,407341456909,XXXX-XXXX-2909,AADHAAR-2345XXXX4700,7073492160,rahul.tiwari381@hotmail.com,"166, MG Road, Bhagalpur, Bihar - 789468",Bihar,Bhagalpur,15.897345,80.235209,Salaried - Government,445667,16,Rental Income,Low,N,N,N,N,N,24-11-2015,11-11-2018,,,,,,,,,,
127008603057,Sneha Agarwal,Individual,Individual,22-02-1973,Vivek Pillai,Indian,Indian,Resident,India,WPDPA2779M,961318338415,XXXX-XXXX-1809,AADHAAR-7221XXXX9850,6452719827,sneha.agarwal182@gmail.com,"312, NH Highway, Madurai, Tamil Nadu - 678788",Tamil Nadu,Madurai,21.116061,80.159615,Self-Employed - Professional,769596,5,Pension,Medium,N,N,N,Y,N,24-10-2021,14-06-2023,,,,,,,,,,
154043502549,Sanjay Rao,Individual,Individual,08-11-1964,Aditya Chatterjee,Indian,Indian,Resident,India,WUKPF9696X,678434450253,XXXX-XXXX-2044,AADHAAR-5189XXXX8559,9682131718,sanjay.rao438@gmail.com,"40, Ring Road, Jabalpur, Madhya Pradesh - 242910",Madhya Pradesh,Jabalpur,15.79024,76.435789,Freelancer,236802,13,Business Income,Low,N,N,N,N,Y,18-09-2023,23-08-2024,,,,,,,,,,
429994894035,Jyoti Yadav,Individual,Individual,22-09-1984,Nikhil Bhat,Indian,Indian,Resident,India,RSWPM8143A,258210719192,XXXX-XXXX-2356,AADHAAR-4635XXXX2305,8548723709,jyoti.yadav301@yahoo.co.in,"193, NH Highway, Muzaffarpur, Bihar - 239416",Bihar,Muzaffarpur,23.057725,73.297672,Consultant,1824029,19,Salary,Medium,N,N,N,N,Y,30-12-2015,02-11-2016,,,,,,,,,,
915298412546,Anil Chatterjee,Individual,Individual,19-09-1973,Pradeep Reddy,Indian,Indian,Resident,India,XADPO1393K,903987928624,XXXX-XXXX-8139,AADHAAR-3339XXXX0093,6208997304,anil.chatterjee117@gmail.com,"29, NH Highway, Jaipur, Rajasthan - 325210",Rajasthan,Jaipur,26.920854,75.778041,Doctor,274828,32,Agriculture Income,Low,N,N,N,Y,N,02-07-2023,28-12-2024,,,,,,,,,,
199939488117,Royal Technologies,Non-Individual,LLP,,,Indian,,Resident,India,VVCAC0391U,,,,7318387859,royal640@gmail.com,,Kerala,Kochi,9.89377,76.304926,Financial Services,340604143,,Donations,Medium,N,N,N,N,N,18-05-2012,11-03-2013,17-08-2001,"Kochi, Kerala",Control through other means,N,"186 Corporate Park, Kochi, Kerala - 402177","Plot 487, Industrial Area, Kochi, Kerala","135, Residential Colony, Kochi, Kerala",U69511PH2014PTC479226,348524438203,Sanjay Mishra
709908975611,Ravi Gupta,Individual,Individual,26-11-1985,Sachin Rao,Indian,Indian,Resident,India,XJGPJ0604W,645031297758,XXXX-XXXX-4837,AADHAAR-7634XXXX6714,6937775489,ravi.gupta1@rediffmail.com,"144, NH Highway, Howrah, West Bengal - 101823",West Bengal,Howrah,20.805324,80.272553,Freelancer,1822232,14,Salary,High,N,N,N,Y,Y,28-07-2017,12-03-2021,,,,,,,,,,
452613446753,Sonal Mishra,Individual,Individual,10-06-2002,Mohit Tiwari,Indian,Indian,Resident,India,KYFPW7864N,836570524741,XXXX-XXXX-9677,AADHAAR-8459XXXX7272,7167090472,sonal.mishra945@gmail.com,"322, Station Road, Saket, Delhi - 657501",Delhi,Saket,16.600551,77.796182,Consultant,466038,19,Family Support,Low,N,N,N,Y,N,09-11-2018,17-12-2018,,,,,,,,,,
391976858900,Shweta Sharma,Individual,Individual,08-06-1979,Kiran Bose,Indian,Indian,Resident,India,JTQPN6167G,221775926039,XXXX-XXXX-7513,AADHAAR-4747XXXX5589,8771491777,shweta.sharma541@yahoo.co.in,"422, NH Highway, Salem, Tamil Nadu - 583239",Tamil Nadu,Salem,16.713904,74.037104,Salaried - Government,1192814,37,Family Support,Medium,N,N,N,Y,Y,04-04-2020,14-02-2024,,,,,,,,,,
899398415897,Akash Reddy,Individual,Individual,29-07-1991,Rahul Sen,Indian,Indian,Resident,India,BAFPC1153B,593902987622,XXXX-XXXX-9725,AADHAAR-7202XXXX4593,6722545893,akash.reddy734@outlook.com,"40, Ring Road, Hubli, Karnataka - 302528",Karnataka,Hubli,19.262298,76.322746,Salaried - Banking,444036,36,Family Support,Low,N,N,N,N,Y,22-08-2017,05-01-2023,,,,,,,,,,
